State,Agency Name,Latitude,Longitude,ORI,City,Population,Poverty,Poverty Rate,Violent Crime,Property Crime,Violent Crime(Per 100k),Property Crime(Per 100k),Crime Rate(Per 100k)
AK,Anchorage Police Department,61.17425,-149.284329,AK0010100,Anchorage,292545,26182,8.95,3026,8327,1034.37,2846.4,3880.77
AK,Fairbanks Police Department,64.83945,-147.71942,AK0010200,Fairbanks,33018,2769,8.39,190,1287,575.44,3897.87,4473.32
AK,Juneau Police Department,58.356556,-134.50731,AK0010300,Juneau,32240,2293,7.11,172,889,533.5,2757.44,3290.94
AK,Wasilla Police Department,62.182174,-149.407974,AK0015600,Wasilla,9098,1364,14.99,56,380,615.52,4176.74,4792.26
AK,Sitka Police Department,57.052124,-135.33418,AK0010900,Sitka,8518,573,6.73,19,70,223.06,821.79,1044.85
AK,Ketchikan Police Department,55.449938,-131.106685,AK0010400,Ketchikan,8150,981,12.04,24,242,294.48,2969.33,3263.8
AK,Kenai Police Department,60.559402,-151.2507,AK0012300,Kenai,7452,1042,13.98,23,70,308.64,939.35,1247.99
AK,Bethel Police Department,60.928916,-160.15335,AK0011300,Bethel,6273,803,12.8,53,47,844.89,749.24,1594.13
AK,Palmer Police Department,61.602676,-149.11183,AK0011700,Palmer,5978,674,11.27,13,88,217.46,1472.06,1689.53
AK,Kodiak Police Department,57.8049,-152.37332,AK0010500,Kodiak,5682,505,8.89,18,57,316.79,1003.17,1319.96
AK,Homer Police Department,59.64873,-151.52992,AK0012200,Homer,5531,695,12.57,14,66,253.12,1193.27,1446.39
AK,Soldotna Police Department,60.481678,-151.07265,AK0012000,Soldotna,4370,823,18.83,14,89,320.37,2036.61,2356.98
AK,Unalaska Police Department,51.959447,178.338813,AK0013300,Unalaska,4339,280,6.45,7,13,161.33,299.61,460.94
AK,Valdez Police Department,61.34984,-145.023141,AK0011200,Valdez,3966,173,4.36,3,14,75.64,353.0,428.64
AK,Nome Police Department,64.783686,-164.188912,AK0010600,Nome,3685,249,6.76,55,29,1492.54,786.97,2279.51
AK,Petersburg Police Department,55.415683,-132.875734,AK0010700,Petersburg,3259,150,4.6,4,29,122.74,889.84,1012.58
AK,Kotzebue Police Department,67.005066,-160.021086,AK0011600,Kotzebue,3199,465,14.54,43,43,1344.17,1344.17,2688.34
AK,North Pole Police Department,64.75503,-147.35081,AK0013200,North Pole,2825,147,5.2,11,48,389.38,1699.12,2088.5
AK,Seward Police Department,60.366668,-152.322283,AK0010800,Seward,2614,219,8.38,12,41,459.07,1568.48,2027.54
AK,Cordova Police Department,61.34984,-145.023141,AK0011400,Cordova,2588,42,1.62,7,11,270.48,425.04,695.52
AK,Wrangell Police Department,56.279121,-132.040325,AK0011100,Wrangell,2162,258,11.93,6,1,277.52,46.25,323.77
AK,Dillingham Police Department,59.824816,-158.602233,AK0013000,Dillingham,2133,232,10.88,0,0,0.0,0.0,0.0
AK,Haines Police Department,59.098771,-135.576936,AK0012100,Haines,1571,92,5.86,1,6,63.65,381.92,445.58
AK,Skagway Police Department,59.575097,-135.335418,AK0011000,Skagway,1217,64,5.26,3,3,246.51,246.51,493.02
AK,Sand Point Police Department,55.245044,-161.997477,AK0015200,Sand Point,1164,122,10.48,0,0,0.0,0.0,0.0
AL,Huntsville Police Department,34.764238,-86.55108,AL0470100,Huntsville,210081,29379,13.98,292,1589,138.99,756.37,895.37
AL,Birmingham Police Department,33.553444,-86.896536,AL0010200,Birmingham,202234,49752,24.6,3024,9037,1495.3,4468.59,5963.88
AL,Montgomery Police Department,32.20365,-86.203831,AL0030100,Montgomery,201022,41068,20.43,0,0,0.0,0.0,0.0
AL,Mobile Police Department,30.673004,-88.09793,AL0020100,Mobile,187445,36496,19.47,2141,5913,1142.2,3154.53,4296.73
AL,Tuscaloosa Police Department,33.173267,-87.55792,AL0630100,Tuscaloosa,99252,20272,20.42,638,3353,642.81,3378.27,4021.08
AL,Hoover Police Department,33.38795,-86.80636,AL0011200,Hoover,91371,6041,6.61,72,1315,78.8,1439.19,1517.99
AL,Auburn Police Department,32.608086,-85.475136,AL0430100,Auburn,74637,17439,23.37,145,925,194.27,1239.33,1433.61
AL,Dothan Police Department,31.225441,-85.3914,AL0380100,Dothan,70318,12622,17.95,653,2427,928.64,3451.46,4380.1
AL,Decatur Police Department,34.454484,-86.846402,AL0520100,Decatur,57303,8568,14.95,284,1529,495.61,2668.27,3163.88
AL,Madison Police Department,34.6994,-86.74227,AL0470200,Madison,55551,2745,4.94,72,566,129.61,1018.88,1148.49
AL,Florence Police Department,34.904122,-87.650997,AL0410100,Florence,39709,7649,19.26,211,992,531.37,2498.17,3029.54
AL,Vestavia Hills Police Department,33.553444,-86.896536,AL0010900,Vestavia Hills,38504,1475,3.83,29,326,75.32,846.67,921.98
AL,Phenix City Police Department,32.46812,-85.00083,AL0570100,Phenix City,38216,9875,25.84,337,1470,881.83,3846.56,4728.39
AL,Prattville Police Department,32.459705,-86.47263,AL0040100,Prattville,37977,4623,12.17,101,845,265.95,2225.03,2490.98
AL,Gadsden Police Department,34.047648,-86.034522,AL0310200,Gadsden,34317,9110,26.55,208,1304,606.11,3799.87,4405.98
AL,Alabaster Police Department,33.24704,-86.81563,AL0590400,Alabaster,33133,2188,6.6,37,553,111.67,1669.03,1780.7
AL,Opelika Police Department,32.604064,-85.353048,AL0430200,Opelika,30810,5235,16.99,235,957,762.74,3106.13,3868.87
AL,Northport Police Department,33.290202,-87.52286,AL0630200,Northport,30334,4001,13.19,134,571,441.75,1882.38,2324.12
AL,Enterprise Police Department,31.402258,-85.989602,AL0190200,Enterprise,28242,4502,15.94,225,835,796.69,2956.59,3753.28
AL,Daphne Police Department,30.599625,-87.898056,AL0050800,Daphne,27088,2276,8.4,15,353,55.38,1303.16,1358.54
AL,Homewood Police Department,33.479603,-86.791016,AL0011000,Homewood,26206,1908,7.28,48,693,183.16,2644.43,2827.6
AL,Bessemer Police Department,33.396152,-86.95345,AL0010100,Bessemer,26171,7397,28.26,590,1984,2254.4,7580.91,9835.31
AL,Athens Police Department,34.803825,-86.95889,AL0440100,Athens,25213,3362,13.33,67,781,265.74,3097.61,3363.34
AL,Trussville Police Department,33.553444,-86.896536,AL0012100,Trussville,25027,931,3.72,27,536,107.88,2141.69,2249.57
AL,Pelham Police Department,33.262937,-86.678104,AL0590600,Pelham,24134,991,4.11,40,271,165.74,1122.9,1288.64
AR,Little Rock Police Department,34.749084,-92.277565,AR0600200,Little Rock,201893,30881,15.3,3657,11075,1811.36,5485.58,7296.93
AR,Fayetteville Police Department,36.06085,-94.15727,AR0720100,Fayetteville,92070,18074,19.63,426,3280,462.69,3562.51,4025.2
AR,Fort Smith Police Department,35.38317,-94.4234,AR0660100,Fort Smith,89116,16650,18.68,924,3785,1036.85,4247.27,5284.12
AR,Springdale Police Department,36.18645,-94.12982,AR0720200,Springdale,85887,12840,14.95,511,2422,594.97,2819.98,3414.95
AR,Jonesboro Police Department,35.838394,-90.70817,AR0160100,Jonesboro,77520,15173,19.57,517,2674,666.92,3449.43,4116.36
AR,Rogers Police Department,36.337825,-94.256187,AR0040200,Rogers,68340,6524,9.55,273,1188,399.47,1738.37,2137.84
AR,North Little Rock Police Department,34.77923,-92.26978,AR0600300,North Little Rock,64444,13890,21.55,809,2663,1255.35,4132.27,5387.62
AR,Conway Police Department,35.08855,-92.43863,AR0230100,Conway,63746,10892,17.09,382,1720,599.25,2698.21,3297.46
AR,Bentonville Police Department,36.38833,-94.21991,AR0040100,Bentonville,52565,3691,7.02,150,652,285.36,1240.37,1525.73
AR,Pine Bluff Police Department,34.221638,-92.00195,AR0350100,Pine Bluff,41964,9010,21.47,643,1906,1532.27,4541.99,6074.25
AR,Hot Springs Police Department,34.578861,-93.146915,AR0260100,Hot Springs,38050,7456,19.6,198,2302,520.37,6049.93,6570.3
AR,Benton Police Department,34.56359,-92.585594,AR0630100,Benton,34746,3684,10.6,172,956,495.02,2751.4,3246.42
AR,Sherwood Police Department,34.832664,-92.209816,AR0600400,Sherwood,32544,2507,7.7,190,762,583.82,2341.45,2925.27
AR,Bella Vista Police Department,36.337825,-94.256187,AR0042100,Bella Vista,29818,977,3.28,48,124,160.98,415.86,576.83
AR,Texarkana Police Department,33.421623,-94.04305,AR0460100,Texarkana,29492,6084,20.63,273,1148,925.67,3892.58,4818.26
AR,Jacksonville Police Department,34.867607,-92.12715,AR0600100,Jacksonville,29385,5443,18.52,326,1240,1109.41,4219.84,5329.25
AR,Paragould Police Department,36.119922,-90.565241,AR0280100,Paragould,29327,5155,17.58,384,1109,1309.37,3781.5,5090.87
AR,Russellville Police Department,35.28542,-93.13359,AR0580100,Russellville,29057,5451,18.76,159,610,547.2,2099.32,2646.52
AR,Cabot Police Department,34.755114,-91.894132,AR0430200,Cabot,26411,2979,11.28,110,523,416.49,1980.24,2396.73
AR,West Memphis Police Department,35.146515,-90.17703,AR0180100,West Memphis,24666,6117,24.8,581,1158,2355.47,4694.72,7050.19
AR,Van Buren Police Department,35.438732,-94.348175,AR0170100,Van Buren,23213,4296,18.51,82,684,353.25,2946.62,3299.88
AR,Searcy Police Department,35.254722,-91.753158,AR0730100,Searcy,23074,4162,18.04,106,761,459.39,3298.08,3757.48
AR,Bryant Police Department,34.61423,-92.49969,AR0630200,Bryant,20399,992,4.86,29,563,142.16,2759.94,2902.1
AR,Maumelle Police Department,34.773988,-92.316515,AR0601600,Maumelle,19070,1112,5.83,44,219,230.73,1148.4,1379.13
AR,Centerton Police Department,36.337825,-94.256187,AR0041300,Centerton,17455,929,5.32,53,86,303.64,492.7,796.33
AZ,Phoenix Police Department,33.44825,-112.0817,AZ0072300,Phoenix,1591119,241238,15.16,13040,41432,819.55,2603.95,3423.5
AZ,Chandler Police Department,33.300625,-111.8382,AZ0070500,Chandler,272439,20397,7.49,492,4085,180.59,1499.42,1680.01
AZ,Gilbert Police Department,33.330627,-111.78834,AZ0071100,Gilbert,262249,14013,5.34,328,2613,125.07,996.38,1121.45
AZ,Glendale Police Department,33.536736,-112.18246,AZ0071300,Glendale,245685,41884,17.05,1446,7356,588.56,2994.08,3582.64
AZ,Scottsdale Police Department,33.5695,-111.88542,AZ0072500,Scottsdale,238685,15978,6.69,405,5391,169.68,2258.63,2428.31
AZ,Peoria Police Department,33.346541,-112.495534,AZ0072100,Peoria,187733,15740,8.38,427,2608,227.45,1389.21,1616.66
AZ,Tempe Police Department,33.346541,-112.495534,AZ0072900,Tempe,178862,30594,17.1,953,6734,532.81,3764.91,4297.73
AZ,Surprise Police Department,33.346541,-112.495534,AZ0072700,Surprise,141875,10580,7.46,164,1996,115.59,1406.87,1522.47
AZ,Yuma Police Department,32.700336,-114.62042,AZ0140500,Yuma,95154,15774,16.58,460,1477,483.43,1552.22,2035.65
AZ,Goodyear Police Department,33.490746,-112.362495,AZ0071500,Goodyear,93651,5701,6.09,178,1812,190.07,1934.84,2124.91
AZ,Buckeye Police Department,33.375275,-112.573135,AZ0070300,Buckeye,89711,6900,7.69,206,939,229.63,1046.69,1276.32
AZ,Avondale Police Department,33.346541,-112.495534,AZ0070100,Avondale,88065,10165,11.54,430,2299,488.28,2610.57,3098.85
AZ,Flagstaff Police Department,35.188972,-111.64146,AZ0030100,Flagstaff,76228,11064,14.51,304,1674,398.8,2196.04,2594.85
AZ,Maricopa Police Department,32.919038,-111.367005,AZ0111700,Maricopa,57075,3896,6.83,180,551,315.37,965.4,1280.77
AZ,Lake Havasu City Police Department,34.47879,-114.31841,AZ0080400,Lake Havasu City,56510,6643,11.76,172,745,304.37,1318.35,1622.72
AZ,Casa Grande Police Department,32.878384,-111.751495,AZ0110100,Casa Grande,53488,7506,14.03,338,1327,631.92,2480.93,3112.85
AZ,Marana Police Department,32.447636,-111.20846,AZ0100900,Marana,50834,2823,5.55,49,1038,96.39,2041.94,2138.33
AZ,Oro Valley Police Department,32.406918,-110.99574,AZ0100700,Oro Valley,46515,3122,6.71,28,558,60.2,1199.61,1259.81
AZ,Prescott Valley Police Department,34.59638,-112.33222,AZ0131100,Prescott Valley,46014,5323,11.57,133,468,289.04,1017.08,1306.12
AZ,Prescott Police Department,34.630044,-112.573745,AZ0130700,Prescott,45063,4856,10.78,170,701,377.25,1555.6,1932.85
AZ,Sierra Vista Police Department,31.56594,-110.27322,AZ0020900,Sierra Vista,44944,4731,10.53,100,729,222.5,1622.02,1844.52
AZ,Bullhead City Police Department,35.717705,-113.749689,AZ0080500,Bullhead City,41064,8144,19.83,190,905,462.69,2203.88,2666.57
AZ,Apache Junction Police Department,33.422348,-111.543236,AZ0111300,Apache Junction,38311,4855,12.67,209,681,545.54,1777.56,2323.09
AZ,El Mirage Police Department,33.346541,-112.495534,AZ0070700,El Mirage,35410,5138,14.51,135,485,381.25,1369.67,1750.92
AZ,San Luis Police Department,32.773942,-113.910905,AZ0140800,San Luis,35289,8097,22.94,21,202,59.51,572.42,631.92
CA,San Jose Police Department,37.220777,-121.690622,CA0431300,San Jose,1013337,77013,7.6,4865,19411,480.1,1915.55,2395.65
CA,San Francisco Police Department,37.775047,-122.40381,CA0380100,San Francisco,865933,87874,10.15,5560,45044,642.08,5201.79,5843.87
CA,Fresno Police Department,36.761006,-119.655019,CA0100500,Fresno,538678,121232,22.51,3972,16921,737.36,3141.21,3878.57
CA,Sacramento Police Department,38.520615,-121.49856,CA0340400,Sacramento,518605,75670,14.59,4237,15442,817.0,2977.6,3794.6
CA,Long Beach Police Department,34.196398,-118.261862,CA0194100,Long Beach,466565,70975,15.21,2783,13439,596.49,2880.41,3476.9
CA,Oakland Police Department,37.79965,-122.27459,CA0010900,Oakland,437548,58518,13.37,15491,43201,3540.41,9873.43,13413.84
CA,Anaheim Police Department,33.675687,-117.777207,CA0300100,Anaheim,348204,44908,12.9,2260,8465,649.04,2431.05,3080.09
CA,Stockton Police Department,37.935034,-121.272237,CA0390500,Stockton,317818,50877,16.01,3717,10104,1169.54,3179.18,4348.72
CA,Santa Ana Police Department,33.675687,-117.777207,CA0301900,Santa Ana,313818,37979,12.1,1711,6186,545.22,1971.21,2516.43
CA,Irvine Police Department,33.675687,-117.777207,CA0302600,Irvine,297868,35443,11.9,274,4904,91.99,1646.37,1738.35
CA,Chula Vista Police Department,33.023604,-116.776117,CA0370200,Chula Vista,274818,24883,9.05,972,3612,353.69,1314.32,1668.01
CA,Fremont Police Department,37.553017,-121.97069,CA0010500,Fremont,231502,11235,4.85,477,6350,206.05,2742.96,2949.0
CA,Santa Clarita Police Department,34.06067,-118.167885,CA0191R0X,Santa Clarita,227182,18588,8.18,389,2690,171.23,1184.07,1355.3
CA,San Bernardino Police Department,34.85722,-116.181197,CA0361000,San Bernardino,220821,44022,19.94,2352,7137,1065.12,3232.03,4297.15
CA,Modesto Police Department,37.636703,-120.99575,CA0500200,Modesto,217728,27587,12.67,1409,4960,647.14,2278.07,2925.21
CA,Fontana Police Department,34.102913,-117.432785,CA0360400,Fontana,208087,23841,11.46,603,2944,289.78,1414.79,1704.58
CA,Oxnard Police Department,34.200966,-119.181076,CA0560400,Oxnard,202981,21244,10.47,1216,3537,599.07,1742.53,2341.6
CA,Huntington Beach Police Department,33.675687,-117.777207,CA0301000,Huntington Beach,198735,15515,7.81,416,3948,209.32,1986.57,2195.89
CA,Glendale Police Department,34.14695,-118.24886,CA0192500,Glendale,196512,27065,13.77,422,4187,214.75,2130.66,2345.4
CA,Santa Rosa Police Department,38.525026,-122.937605,CA0490500,Santa Rosa,179213,17335,9.67,585,2620,326.43,1461.95,1788.37
CA,Elk Grove Police Department,38.450011,-121.340441,CA0340H00,Elk Grove,175510,14759,8.41,335,2158,190.87,1229.56,1420.43
CA,Ontario Police Department,34.027554,-117.593216,CA0360700,Ontario,175223,22607,12.9,615,4185,350.98,2388.39,2739.37
CA,Oceanside Police Department,33.023604,-116.776117,CA0371000,Oceanside,174461,16404,9.4,737,3074,422.44,1762.0,2184.44
CA,Rancho Cucamonga Police Department,34.10287,-117.575584,CA0361600,Rancho Cucamonga,173946,12449,7.16,216,1996,124.18,1147.48,1271.66
CA,Garden Grove Police Department,33.675687,-117.777207,CA0300900,Garden Grove,172708,22837,13.22,309,2430,178.91,1407.0,1585.91
CO,Denver Police Department,39.737377,-104.99167,CODPD0000,Denver,706799,80620,11.41,7279,41090,1029.85,5813.53,6843.39
CO,Aurora Police Department,39.70955,-104.81493,CO0010100,Aurora,383496,38837,10.13,3783,14982,986.45,3906.69,4893.14
CO,Fort Collins Police Department,40.58892,-105.08077,CO0350300,Fort Collins,166788,24796,14.87,500,4147,299.78,2486.39,2786.17
CO,Lakewood Police Department,39.708225,-105.08569,CO0300400,Lakewood,155608,14060,9.04,1119,7253,719.11,4661.07,5380.19
CO,Thornton Police Department,39.868996,-104.984215,CO0010400,Thornton,140538,11486,8.17,400,4321,284.62,3074.61,3359.23
CO,Arvada Police Department,39.802036,-105.08734,CO0300100,Arvada,122903,7363,5.99,262,3170,213.18,2579.27,2792.45
CO,Westminster Police Department,39.86312,-105.050415,CO0010500,Westminster,115535,7638,6.61,378,4117,327.17,3563.42,3890.6
CO,Pueblo Police Department,38.268818,-104.6085,CO0510100,Pueblo,111424,22698,20.37,1641,6224,1472.75,5585.87,7058.62
CO,Centennial Police Department,39.644632,-104.331733,CO0031100,Centennial,107972,3532,3.27,223,2060,206.54,1907.9,2114.44
CO,Greeley Police Department,40.422905,-104.72735,CO0620200,Greeley,107014,15455,14.44,685,3158,640.1,2951.02,3591.12
CO,Boulder Police Department,40.018864,-105.24995,CO0070100,Boulder,104930,19647,18.72,372,3212,354.52,3061.09,3415.61
CO,Longmont Police Department,40.162106,-105.10189,CO0070400,Longmont,98789,8053,8.15,451,2694,456.53,2727.02,3183.55
CO,Loveland Police Department,40.402042,-105.08795,CO0350400,Loveland,75938,6017,7.92,307,1878,404.28,2473.07,2877.35
CO,Broomfield Police Department,39.921543,-105.07059,CO0640100,Broomfield,72697,3183,4.38,130,1767,178.82,2430.64,2609.46
CO,Castle Rock Police Department,39.37022,-104.85867,CO0180100,Castle Rock,71037,2548,3.59,19,1008,26.75,1418.98,1445.73
CO,Grand Junction Police Department,39.019492,-108.461837,CO0390100,Grand Junction,65067,8183,12.58,350,2237,537.91,3437.99,3975.9
CO,Commerce City Police Department,39.874325,-104.331872,CO0010300,Commerce City,61516,6009,9.77,523,1963,850.19,3191.04,4041.23
CO,Parker Police Department,39.326435,-104.926199,CO0180500,Parker,57311,1693,2.95,128,1151,223.34,2008.34,2231.68
CO,Littleton Police Department,39.616898,-105.01454,CO0030200,Littleton,45465,3328,7.32,88,1248,193.56,2744.97,2938.52
CO,Brighton Police Department,39.874325,-104.331872,CO0010200,Brighton,39895,2969,7.44,182,1125,456.2,2819.9,3276.1
CO,Northglenn Police Department,39.9079,-104.98737,CO0010600,Northglenn,37899,3185,8.4,206,1266,543.55,3340.46,3884.01
CO,Englewood Police Department,39.644632,-104.331733,CO0030100,Englewood,33500,2948,8.8,216,1900,644.78,5671.64,6316.42
CO,Wheat Ridge Police Department,39.758446,-105.07984,CO0300500,Wheat Ridge,32340,3875,11.98,138,1445,426.72,4468.15,4894.87
CO,Windsor Police Department,40.555794,-104.383649,CO0620600,Windsor,31972,1115,3.49,15,266,46.92,831.98,878.89
CO,Lafayette Police Department,39.987686,-105.09051,CO0070300,Lafayette,30307,1319,4.35,60,913,197.97,3012.51,3210.48
CT,Bridgeport Police Department,41.227399,-73.366523,CT0001500,Bridgeport,148529,33577,22.61,584,2097,393.19,1411.85,1805.03
CT,Stamford Police Department,41.060837,-73.53756,CT0013500,Stamford,134820,12534,9.3,234,1593,173.56,1181.58,1355.14
CT,New Haven Police Department,41.28382,-72.868744,CT0009300,New Haven,133874,30817,23.02,767,5240,572.93,3914.13,4487.05
CT,Waterbury Police Department,41.349717,-72.900204,CT0015100,Waterbury,113783,24247,21.31,465,3534,408.67,3105.91,3514.58
CT,Norwalk Police Department,41.096684,-73.42238,CT0010300,Norwalk,90821,8791,9.68,101,1427,111.21,1571.22,1682.43
CT,Danbury Police Department,41.40037,-73.45838,CT0003400,Danbury,86197,8752,10.15,187,975,216.94,1131.13,1348.07
CT,New Britain Police Department,41.667534,-72.77737,CT0008900,New Britain,74022,14676,19.83,365,1723,493.1,2327.69,2820.78
CT,West Hartford Police Department,41.75906,-72.73901,CT0015500,West Hartford,64034,3964,6.19,34,1979,53.1,3090.55,3143.64
CT,Meriden Police Department,41.5185,-72.82707,CT0008000,Meriden,60790,8179,13.45,121,1464,199.05,2408.29,2607.34
CT,Bristol Police Department,41.670544,-72.94299,CT0001700,Bristol,60733,5352,8.81,32,726,52.69,1195.4,1248.09
CT,West Haven Police Department,41.27384,-72.96431,CT0015600,West Haven,55518,6149,11.08,50,935,90.06,1684.14,1774.2
CT,Hartford Police Department,41.806053,-72.732916,CT0006400,Hartford,50971,6599,12.95,686,3282,1345.86,6438.96,7784.82
CT,East Hartford Police Department,41.78032,-72.611305,CT0004300,East Hartford,50971,6599,12.95,75,1153,147.14,2262.07,2409.21
CT,Milford Police Department,41.349717,-72.900204,CT0008400,Milford,50694,2055,4.05,63,1270,124.28,2505.23,2629.5
CT,Middletown Police Department,41.557114,-72.64751,CT0008300,Middletown,47164,4843,10.27,39,713,82.69,1511.75,1594.44
CT,Shelton Police Department,41.320045,-73.11258,CT0012600,Shelton,40944,2421,5.91,22,257,53.73,627.69,681.42
CT,Norwich Police Department,41.516167,-72.08029,CT0010400,Norwich,40020,4218,10.54,87,524,217.39,1309.35,1526.74
CT,Manchester Police Department,41.783634,-72.51181,CT0007700,Manchester,36832,4994,13.56,66,1055,179.19,2864.36,3043.55
CT,Torrington Police Department,41.812046,-73.12125,CT0014300,Torrington,35447,4715,13.3,42,478,118.49,1348.49,1466.98
CT,Naugatuck Police Department,41.504784,-73.054276,CT0008800,Naugatuck,31586,1529,4.84,30,414,94.98,1310.71,1405.69
CT,Newington Police Department,41.697254,-72.729836,CT0009400,Newington,30493,2478,8.13,24,887,78.71,2908.86,2987.57
CT,East Haven Police Department,41.29254,-72.86689,CT0004400,East Haven,28054,2266,8.08,33,727,117.63,2591.43,2709.06
CT,New London Police Department,41.3566,-72.09597,CT0009500,New London,27585,5763,20.89,54,392,195.76,1421.06,1616.82
CT,Wethersfield Police Department,41.72029,-72.667244,CT0015900,Wethersfield,27162,1463,5.39,20,397,73.63,1461.6,1535.23
CT,North Haven Police Department,41.387096,-72.8615,CT0010100,North Haven,24217,1386,5.72,5,656,20.65,2708.84,2729.49
DE,Wilmington Police Department,39.73873,-75.548965,DE0020600,Wilmington,70926,16362,23.07,924,2598,1302.77,3662.97,4965.74
DE,Dover Police Department,39.097088,-75.502982,DE0010100,Dover,38940,7108,18.25,276,1717,708.78,4409.35,5118.13
DE,Newark Police Department,39.575915,-75.644132,DE0020500,Newark,31393,6342,20.2,77,560,245.28,1783.84,2029.11
DE,Middletown Police Department,39.44838,-75.71802,DE0020200,Middletown,23001,1658,7.21,55,468,239.12,2034.69,2273.81
DE,Smyrna Police Department,39.300205,-75.61435,DE0010300,Smyrna,12619,1702,13.49,48,316,380.38,2504.16,2884.54
DE,Milford Police Department,38.91612,-75.42161,DE0030500,Milford,11249,1929,17.15,121,493,1075.65,4382.61,5458.26
DE,Seaford Police Department,38.65286,-75.61424,DE0030800,Seaford,7852,1215,15.47,89,365,1133.47,4648.5,5781.97
DE,Georgetown Police Department,38.694782,-75.3895,DE0031300,Georgetown,7079,1268,17.91,53,346,748.69,4887.7,5636.39
DE,Millsboro Police Department,38.677511,-75.335495,DE0031500,Millsboro,6542,501,7.66,29,161,443.29,2461.02,2904.31
DE,Elsmere Police Department,39.739624,-75.60179,DE0020700,Elsmere,6167,971,15.75,24,100,389.17,1621.53,2010.7
DE,New Castle Police Department,39.575915,-75.644132,DE0020400,New Castle,5482,159,2.9,31,189,565.49,3447.65,4013.13
DE,Laurel Police Department,38.677511,-75.335495,DE0030300,Laurel,3886,1512,38.91,61,146,1569.74,3757.08,5326.81
DE,Clayton Police Department,39.097088,-75.502982,DE0010600,Clayton,3845,342,8.89,7,21,182.05,546.16,728.22
DE,Camden Police Department,39.11345,-75.54225,DE0010400,Camden,3786,157,4.15,16,211,422.61,5573.16,5995.77
DE,Harrington Police Department,38.924095,-75.57957,DE0010200,Harrington,3730,785,21.05,12,70,321.72,1876.68,2198.39
DE,Lewes Police Department,38.677511,-75.335495,DE0030400,Lewes,3257,218,6.69,5,43,153.52,1320.23,1473.75
DE,Milton Police Department,38.77769,-75.31031,DE0030600,Milton,3224,361,11.2,5,29,155.09,899.5,1054.59
DE,Selbyville Police Department,38.677511,-75.335495,DE0031600,Selbyville,2806,158,5.63,7,78,249.47,2779.76,3029.22
DE,Ocean View Police Department,38.677511,-75.335495,DE0031700,Ocean View,2556,316,12.36,2,20,78.25,782.47,860.72
DE,Bridgeville Police Department,38.744175,-75.599144,DE0030100,Bridgeville,2499,315,12.61,13,35,520.21,1400.56,1920.77
DE,Delmar Police Department,38.677511,-75.335495,DE0030200,Delmar,2241,319,14.23,14,44,624.72,1963.41,2588.13
DE,Delaware City Police Department,39.57391,-75.59376,DE0020900,Delaware City,1885,262,13.9,6,12,318.3,636.6,954.91
DE,Cheswold Police Department,39.097088,-75.502982,DE0012600,Cheswold,1705,297,17.42,13,9,762.46,527.86,1290.32
DE,Wyoming Police Department,39.118744,-75.55912,DE0013100,Wyoming,1636,162,9.9,5,18,305.62,1100.24,1405.87
DE,Greenwood Police Department,38.677511,-75.335495,DE0031400,Greenwood,1459,127,8.7,2,24,137.08,1644.96,1782.04
FL,Miami Police Department,25.7779,-80.197876,FL0130600,Miami,440807,90654,20.57,2230,13366,505.89,3032.17,3538.06
FL,Tampa Police Department,27.947796,-82.45798,FL0290200,Tampa,380476,63481,16.68,1860,6721,488.86,1766.47,2255.33
FL,Orlando Police Department,28.514435,-81.323295,FL0480400,Orlando,302968,46493,15.35,0,0,0.0,0.0,0.0
FL,St. Petersburg Police Department,27.771997,-82.65182,FL0521400,St. Petersburg,258245,31345,12.14,1525,7052,590.52,2730.74,3321.26
FL,Hialeah Police Department,25.873285,-80.26692,FL0130400,Hialeah,224362,41636,18.56,0,0,0.0,0.0,0.0
FL,Port St. Lucie Police Department,27.273928,-80.34833,FL0560200,Port St. Lucie,202177,16731,8.28,243,1840,120.19,910.09,1030.29
FL,Tallahassee Police Department,30.457855,-84.27986,FL0370300,Tallahassee,195057,44415,22.77,382,1111,195.84,569.58,765.42
FL,Cape Coral Police Department,26.551527,-81.892457,FL0360200,Cape Coral,193003,18990,9.84,49,363,25.39,188.08,213.47
FL,Fort Lauderdale Police Department,26.121895,-80.15851,FL0060300,Fort Lauderdale,182247,27702,15.2,0,0,0.0,0.0,0.0
FL,Pembroke Pines Police Department,26.00853,-80.27197,FL0060800,Pembroke Pines,170346,17914,10.52,0,0,0.0,0.0,0.0
FL,Hollywood Police Department,26.010834,-80.17272,FL0060500,Hollywood,152597,18711,12.26,0,0,0.0,0.0,0.0
FL,Gainesville Police Department,29.67574,-82.357221,FL0010100,Gainesville,138741,36080,26.01,1084,4221,781.31,3042.36,3823.67
FL,Miramar Police Department,26.193535,-80.476683,FL0062200,Miramar,134306,11722,8.73,238,1502,177.21,1118.34,1295.55
FL,Coral Springs Police Department,26.264788,-80.26626,FL0062800,Coral Springs,133693,11579,8.66,183,1659,136.88,1240.9,1377.78
FL,Palm Bay Police Department,27.999031,-80.68493,FL0051200,Palm Bay,118709,15517,13.07,428,1378,360.55,1160.82,1521.37
FL,Clearwater Police Department,27.96386,-82.797905,FL0520300,Clearwater,116616,17869,15.32,398,2145,341.29,1839.37,2180.66
FL,Miami Gardens Police Department,25.927366,-80.22583,FL0139700,Miami Gardens,111706,17667,15.82,184,977,164.72,874.62,1039.34
FL,Pompano Beach Police Department,26.193535,-80.476683,FL0060700,Pompano Beach,111423,16832,15.11,0,0,0.0,0.0,0.0
FL,Lakeland Police Department,28.045244,-81.95414,FL0531200,Lakeland,110401,15955,14.45,0,0,0.0,0.0,0.0
FL,Davie Police Department,26.103151,-80.28184,FL0061200,Davie,104782,12239,11.68,230,2116,219.5,2019.43,2238.93
FL,Sunrise Police Department,26.131817,-80.33324,FL0062700,Sunrise,96220,10334,10.74,0,0,0.0,0.0,0.0
FL,Boca Raton Police Department,26.35139,-80.08977,FL0500200,Boca Raton,95347,8437,8.85,161,1914,168.86,2007.4,2176.26
FL,Deerfield Beach Police Department,26.193535,-80.476683,FL0060200,Deerfield Beach,86062,13183,15.32,0,0,0.0,0.0,0.0
FL,Fort Myers Police Department,26.639778,-81.868385,FL0360100,Fort Myers,84694,13144,15.52,0,0,0.0,0.0,0.0
FL,Melbourne Police Department,28.298304,-80.700333,FL0050700,Melbourne,83500,11085,13.28,0,0,0.0,0.0,0.0
GA,Atlanta Police Department,33.74819,-84.39517,GAAPD0000,Atlanta,492204,84756,17.22,3543,19517,719.82,3965.23,4685.05
GA,Columbus Police Department,32.464756,-84.98599,GA1060100,Columbus,204366,38670,18.92,832,3317,407.11,1623.07,2030.18
GA,Athens-Clarke County Police Department,33.94101,-83.32669,GA0290100,Athens-Clarke County,126118,30535,24.21,560,3278,444.03,2599.15,3043.18
GA,Sandy Springs Police Department,33.925224,-84.359856,GA0605600,Sandy Springs,106605,6880,6.45,162,1826,151.96,1712.87,1864.83
GA,Roswell Police Department,34.021626,-84.35973,GA0600500,Roswell,92688,5600,6.04,172,1148,185.57,1238.56,1424.13
GA,Johns Creek Police Department,33.790034,-84.468182,GA0605800,Johns Creek,82068,2976,3.63,40,451,48.74,549.54,598.28
GA,Warner Robins Police Department,32.458381,-83.662856,GA0760200,Warner Robins,79589,9831,12.35,554,2962,696.08,3721.62,4417.7
GA,Albany Police Department,31.532588,-84.20904,GA0470100,Albany,70748,19121,27.03,662,1555,935.72,2197.94,3133.66
GA,Alpharetta Police Department,33.790034,-84.468182,GA0600400,Alpharetta,65187,2771,4.25,191,906,293.0,1389.85,1682.85
GA,Marietta Police Department,33.95526,-84.54541,GA0330300,Marietta,60962,7459,12.24,156,1015,255.9,1664.97,1920.87
GA,Smyrna Police Department,33.888607,-84.51593,GA0330400,Smyrna,55460,4680,8.44,164,909,295.71,1639.02,1934.73
GA,Valdosta Police Department,30.826075,-83.278145,GA0920100,Valdosta,55417,16548,29.86,69,344,124.51,620.75,745.26
GA,Dunwoody  Police Department,33.770661,-84.226343,GA0447100,Dunwoody,51103,3137,6.14,116,1877,226.99,3672.97,3899.97
GA,Gainesville Police Department,34.29682,-83.82664,GA0690100,Gainesville,41730,7842,18.79,174,1196,416.97,2866.04,3283.01
GA,East Point Police Department,33.681007,-84.44159,GA0600200,East Point,37895,8711,22.99,8,0,21.11,0.0,21.11
GA,Peachtree City Police Department,33.412717,-84.493941,GA0560200,Peachtree City,37867,2537,6.7,15,472,39.61,1246.47,1286.08
GA,Rome Police Department,34.169235,-85.21126,GA0570200,Rome,37509,8920,23.78,370,1506,986.43,4015.04,5001.47
GA,Hinesville Police Department,31.846628,-81.59546,GA0890100,Hinesville,34733,6534,18.81,184,690,529.76,1986.58,2516.34
GA,Douglasville Police Department,33.699317,-84.765944,GA0480100,Douglasville,34410,3828,11.12,185,1889,537.63,5489.68,6027.32
GA,Dalton Police Department,34.773823,-84.97399,GA1550100,Dalton,34255,6542,19.1,76,771,221.87,2250.77,2472.63
GA,Woodstock Police Department,34.08742,-84.47999,GA0280500,Woodstock,33857,1869,5.52,41,434,121.1,1281.86,1402.96
GA,Kennesaw Police Department,33.93994,-84.574166,GA0330600,Kennesaw,33036,4450,13.47,88,273,266.38,826.37,1092.75
GA,Statesboro Police Department,32.445255,-81.7862,GA0160100,Statesboro,32400,8916,27.52,128,883,395.06,2725.31,3120.37
GA,Canton Police Department,34.23541,-84.490005,GA0280100,Canton,32342,4839,14.96,57,283,176.24,875.02,1051.26
GA,Duluth Police Department,33.994205,-84.15061,GA0670500,Duluth,31506,2820,8.95,49,400,155.53,1269.6,1425.13
HI,Honolulu Police Department,21.304317,-157.85077,HI0020000,Honolulu,50076,1643,3.28,1840,19393,3674.41,38727.13,42401.55
IA,Des Moines Police Department,41.684281,-93.56972,IA0770300,Des Moines,213545,31926,14.95,1483,7097,694.47,3323.42,4017.89
IA,Cedar Rapids Police Department,41.975834,-91.66754,IA0570100,Cedar Rapids,136512,14967,10.96,408,3929,298.87,2878.14,3177.01
IA,Davenport Police Department,41.523746,-90.57706,IA0820200,Davenport,101725,15593,15.33,692,3837,680.27,3771.93,4452.2
IA,Iowa City Police Department,41.660053,-91.52996,IA0520200,Iowa City,74240,18379,24.76,267,1441,359.64,1941.0,2300.65
IA,Waterloo Police Department,42.499016,-92.33279,IA0070300,Waterloo,67695,10990,16.23,381,1396,562.82,2062.19,2625.01
IA,West Des Moines Police Department,41.684281,-93.56972,IA0770500,West Des Moines,67640,4473,6.61,125,1583,184.8,2340.33,2525.13
IA,Ankeny Police Department,41.684281,-93.56972,IA0770100,Ankeny,66346,2764,4.17,100,891,150.72,1342.96,1493.68
IA,Ames Police Department,42.037538,-93.466093,IA0850100,Ames,65522,14367,21.93,114,932,173.99,1422.42,1596.41
IA,Council Bluffs Police Department,41.340184,-95.544905,IA0780100,Council Bluffs,62617,7687,12.28,281,1918,448.76,3063.07,3511.83
IA,Dubuque Police Department,42.500935,-90.66581,IA0310100,Dubuque,59379,6929,11.67,250,957,421.02,1611.68,2032.71
IA,Urbandale Police Department,41.628784,-93.73656,IA0770400,Urbandale,45037,2615,5.81,62,333,137.66,739.39,877.06
IA,Marion Police Department,42.035267,-91.57182,IA0570200,Marion,41023,2899,7.07,98,267,238.89,650.85,889.74
IA,Cedar Falls Police Department,42.53667,-92.4481,IA0070100,Cedar Falls,40500,6328,15.62,0,0,0.0,0.0,0.0
IA,Bettendorf Police Department,41.52522,-90.50928,IA0820100,Bettendorf,38631,2766,7.16,43,439,111.31,1136.39,1247.7
IA,Marshalltown Police Department,42.04948,-92.91297,IA0640100,Marshalltown,27570,3840,13.93,127,546,460.65,1980.41,2441.06
IA,Mason City Police Department,43.15112,-93.19622,IA0170200,Mason City,27385,2912,10.63,54,807,197.19,2946.87,3144.06
IA,Ottumwa Police Department,41.016605,-92.40911,IA0900100,Ottumwa,25379,3942,15.53,101,767,397.97,3022.18,3420.15
IA,Fort Dodge Police Department,42.50398,-94.18832,IA0940100,Fort Dodge,24826,4074,16.41,168,823,676.71,3315.07,3991.78
IA,Clinton Police Department,41.898073,-90.534243,IA0230100,Clinton,24651,4274,17.34,192,639,778.87,2592.19,3371.06
IA,Burlington Police Department,40.811058,-91.10232,IA0290100,Burlington,24160,4277,17.7,129,535,533.94,2214.4,2748.34
IA,Muscatine Police Department,41.42498,-91.04574,IA0700100,Muscatine,23759,3660,15.4,73,275,307.25,1157.46,1464.71
IA,Waukee Police Department,41.685321,-94.040707,IA0250400,Waukee,23441,1122,4.79,49,257,209.04,1096.37,1305.41
IA,Johnston Police Department,41.684281,-93.56972,IA0770700,Johnston,23418,2263,9.66,26,173,111.03,738.75,849.77
IA,Coralville Police Department,41.668736,-91.588812,IA0520100,Coralville,22226,2033,9.15,33,544,148.47,2447.58,2596.06
IA,North Liberty Police Department,41.668736,-91.588812,IA0520500,North Liberty,19976,902,4.52,25,60,125.15,300.36,425.51
ID,Boise Police Department,43.60671,-116.26885,ID0010100,Boise,231537,26411,11.41,639,2977,275.98,1285.76,1561.74
ID,Meridian Police Department,43.451477,-116.244376,ID0010300,Meridian,115227,7827,6.79,223,676,193.53,586.67,780.2
ID,Nampa Police Department,43.623051,-116.708527,ID0140200,Nampa,98881,12483,12.62,426,994,430.82,1005.25,1436.07
ID,Idaho Falls Police Department,43.395171,-111.621878,ID0100200,Idaho Falls,64399,7980,12.39,215,970,333.86,1506.23,1840.09
ID,Caldwell Police Department,43.667896,-116.69103,ID0140100,Caldwell,58872,6978,11.85,275,520,467.12,883.27,1350.39
ID,Pocatello Police Department,42.692938,-112.228986,ID0030200,Pocatello,55865,7748,13.87,210,819,375.91,1466.03,1841.94
ID,Coeur d'Alene Police Department,47.715008,-116.80246,ID0280100,Coeur d'Alene,53189,5409,10.17,172,609,323.38,1144.97,1468.35
ID,Twin Falls Police Department,42.352309,-114.665639,ID0420200,Twin Falls,51223,6860,13.39,218,857,425.59,1673.08,2098.67
ID,Post Falls Police Department,47.714752,-116.92871,ID0280200,Post Falls,38162,4533,11.88,64,429,167.71,1124.15,1291.86
ID,Lewiston Police Department,46.4178,-117.01638,ID0350200,Lewiston,33964,5018,14.77,44,453,129.55,1333.77,1463.31
ID,Rexburg Police Department,43.789709,-111.65655,ID0330100,Rexburg,33684,11131,33.05,22,120,65.31,356.25,421.57
ID,Moscow Police Department,46.73173,-117.00105,ID0290500,Moscow,25336,4707,18.58,4,394,15.79,1555.1,1570.89
ID,Mountain Home Police Department,43.394677,-115.471204,ID0200200,Mountain Home,15863,2349,14.81,45,95,283.68,598.88,882.56
ID,Chubbuck Police Department,42.692938,-112.228986,ID0030100,Chubbuck,15445,1328,8.6,52,510,336.68,3302.04,3638.72
ID,Jerome Police Department,42.723957,-114.51839,ID0270100,Jerome,12182,2192,17.99,30,91,246.26,747.0,993.27
ID,Blackfoot Police Department,43.216357,-112.399206,ID0060200,Blackfoot,12106,1625,13.42,48,128,396.5,1057.33,1453.82
ID,Garden City Police Department,43.643784,-116.26528,ID0010200,Garden City,12056,1362,11.3,88,217,729.93,1799.93,2529.86
ID,Rathdrum Police Department,47.810562,-116.89777,ID0280500,Rathdrum,9099,581,6.39,8,97,87.92,1066.05,1153.97
ID,Hailey Police Department,43.51983,-114.31555,ID0070300,Hailey,9001,1085,12.05,32,55,355.52,611.04,966.56
ID,Sandpoint Police Department,48.272057,-116.56282,ID0090200,Sandpoint,8448,1146,13.57,6,145,71.02,1716.38,1787.41
ID,Payette Police Department,44.0748,-116.9365,ID0380300,Payette,7999,1023,12.79,39,69,487.56,862.61,1350.17
ID,Emmett Police Department,44.061473,-116.398784,ID0230100,Emmett,7408,1115,15.05,38,50,512.96,674.95,1187.9
ID,Rupert Police Department,42.856937,-113.64001,ID0340100,Rupert,5994,1694,28.26,32,47,533.87,784.12,1317.98
ID,Fruitland Police Department,44.00274,-116.748655,ID0380100,Fruitland,5903,725,12.28,7,47,118.58,796.21,914.79
ID,Weiser Police Department,44.24683,-116.965866,ID0440100,Weiser,5578,912,16.35,10,11,179.28,197.2,376.48
IL,Chicago Police Department,41.830837,-87.62327,ILCPD0000,Chicago,2742119,459412,16.75,15948,90369,581.59,3295.59,3877.18
IL,Aurora Police Department,41.78237,-88.28631,IL0450100,Aurora,183447,18697,10.19,549,1954,299.27,1065.16,1364.43
IL,Joliet Police Department,41.523937,-88.085075,IL0990700,Joliet,150323,15835,10.53,609,1509,405.13,1003.84,1408.97
IL,Naperville Police Department,41.766403,-88.17647,IL0221400,Naperville,149013,5818,3.9,96,1291,64.42,866.37,930.79
IL,Rockford Police Department,42.272087,-89.09654,IL1010400,Rockford,148942,31966,21.46,1677,3982,1125.94,2673.52,3799.47
IL,Springfield Police Department,39.799377,-89.645,IL0840200,Springfield,114672,20549,17.92,896,5383,781.36,4694.26,5475.62
IL,Elgin Police Department,42.039604,-88.28398,IL0450600,Elgin,114156,10689,9.36,254,1001,222.5,876.87,1099.37
IL,Waukegan Police Department,42.36095,-87.83479,IL0492100,Waukegan,89751,13270,14.79,319,981,355.43,1093.02,1448.45
IL,Champaign Police Department,40.116344,-88.23911,IL0100100,Champaign,88343,18920,21.42,381,1631,431.27,1846.21,2277.49
IL,Cicero Police Department,41.844807,-87.74826,IL0162100,Cicero,84905,11418,13.45,207,992,243.8,1168.36,1412.17
IL,Evanston Police Department,42.044216,-87.68356,IL0163200,Evanston,78454,8473,10.8,125,2337,159.33,2978.82,3138.14
IL,Bloomington Police Department,40.494559,-88.844539,IL0570100,Bloomington,78372,10269,13.1,0,0,0.0,0.0,0.0
IL,Schaumburg Police Department,42.026466,-88.102936,IL0162A00,Schaumburg,78053,4649,5.96,68,1536,87.12,1967.89,2055.01
IL,Arlington Heights Police Department,42.081783,-87.98046,IL0160200,Arlington Heights,77283,3615,4.68,62,704,80.22,910.94,991.16
IL,Bolingbrook Police Department,41.698147,-88.081726,IL0990200,Bolingbrook,73807,5807,7.87,162,661,219.49,895.58,1115.07
IL,Decatur Police Department,39.83924,-88.95295,IL0580200,Decatur,71309,13404,18.8,470,1795,659.1,2517.21,3176.32
IL,Palatine Police Department,42.114235,-88.09946,IL0168400,Palatine,67754,7493,11.06,74,609,109.22,898.84,1008.06
IL,Skokie Police Department,42.01612,-87.76066,IL0164A00,Skokie,67444,6110,9.06,132,1688,195.72,2502.82,2698.54
IL,Des Plaines Police Department,42.042133,-87.888695,IL0162500,Des Plaines,60413,4763,7.88,77,502,127.46,830.95,958.4
IL,Orland Park Police Department,41.894294,-87.645455,IL0168300,Orland Park,58622,2897,4.94,22,534,37.53,910.92,948.45
IL,Oak Lawn Police Department,41.721596,-87.75278,IL0168000,Oak Lawn,58032,5809,10.01,76,873,130.96,1504.34,1635.3
IL,Berwyn Police Department,41.836037,-87.787445,IL0160900,Berwyn,56960,6570,11.53,81,391,142.21,686.45,828.65
IL,Mount Prospect Police Department,42.062946,-87.93516,IL0167200,Mount Prospect,56510,2618,4.63,56,547,99.1,967.97,1067.07
IL,Tinley Park Police Department,41.558353,-87.80897,IL0165M00,Tinley Park,55988,3000,5.36,56,614,100.02,1096.66,1196.69
IL,Oak Park Police Department,41.894294,-87.645455,IL0168100,Oak Park,54100,3587,6.63,155,1729,286.51,3195.93,3482.44
IN,Indianapolis Police Department,39.76786,-86.15264,INIPD0000,Indianapolis,880104,141489,16.08,9153,32445,1039.99,3686.5,4726.49
IN,Fort Wayne Police Department,41.091855,-85.07223,IN0020100,Fort Wayne,262676,39836,15.17,732,6390,278.67,2432.65,2711.32
IN,Evansville Police Department,37.97335,-87.568,IN0820100,Evansville,117184,22459,19.17,1307,4237,1115.34,3615.68,4731.02
IN,South Bend Police Department,41.665035,-86.259445,IN0710200,South Bend,102786,20996,20.43,1245,2621,1211.25,2549.96,3761.21
IN,Carmel Police Department,40.04987,-86.020586,IN0290100,Carmel,98137,2967,3.02,61,863,62.16,879.38,941.54
IN,Fishers Police Department,39.958286,-86.01655,IN0290700,Fishers,97154,2746,2.83,105,630,108.08,648.46,756.53
IN,Bloomington Police Department,39.164577,-86.53207,IN0530100,Bloomington,80064,20923,26.13,315,1980,393.44,2473.02,2866.46
IN,Hammond Police Department,41.614895,-87.51721,IN0450700,Hammond,77491,16194,20.9,503,2576,649.11,3324.26,3973.36
IN,Lafayette Police Department,40.41753,-86.89064,IN0790100,Lafayette,70928,11728,16.54,364,1537,513.2,2166.99,2680.18
IN,Gary Police Department,41.601505,-87.34981,IN0450500,Gary,69739,22142,31.75,606,1937,868.95,2777.5,3646.45
IN,Noblesville Police Department,40.044323,-86.013504,IN0290200,Noblesville,68885,3551,5.15,78,446,113.23,647.46,760.69
IN,Muncie Police Department,40.195507,-85.38763,IN0180100,Muncie,65571,17866,27.25,287,1847,437.69,2816.79,3254.49
IN,Greenwood Police Department,39.61119,-86.103516,IN0410300,Greenwood,62914,4701,7.47,79,1249,125.57,1985.25,2110.82
IN,Kokomo Police Department,40.486435,-86.12997,IN0340100,Kokomo,59263,8424,14.21,325,1005,548.4,1695.83,2244.23
IN,Anderson Police Department,40.105686,-85.67817,IN0480200,Anderson,54459,11502,21.12,235,1629,431.52,2991.24,3422.76
IN,Elkhart Police Department,41.684654,-85.96748,IN0200100,Elkhart,53838,10401,19.32,636,1685,1181.32,3129.76,4311.08
IN,Mishawaka Police Department,41.66217,-86.17931,IN0710100,Mishawaka,50823,8630,16.98,127,1058,249.89,2081.73,2331.62
IN,Columbus Police Department,39.199764,-85.92089,IN0030100,Columbus,50718,5837,11.51,10,62,19.72,122.24,141.96
IN,Jeffersonville Police Department,38.476217,-85.711122,IN0100300,Jeffersonville,49178,5540,11.27,140,943,284.68,1917.52,2202.2
IN,Lawrence Police Department,39.782976,-86.135794,IN0490200,Lawrence,49048,5232,10.67,156,1115,318.06,2273.28,2591.34
IN,Westfield Police Department,40.04237,-86.154106,IN0290400,Westfield,45695,2113,4.62,41,502,89.73,1098.59,1188.31
IN,West Lafayette Police Department,40.410015,-86.85338,IN0790200,West Lafayette,44515,11108,24.95,28,536,62.9,1204.09,1266.99
IN,Portage Police Department,41.50992,-87.071309,IN0640200,Portage,37540,5137,13.68,87,408,231.75,1086.84,1318.59
IN,New Albany Police Department,38.284374,-85.824684,IN0220100,New Albany,37350,6294,16.85,110,1153,294.51,3087.01,3381.53
IN,Merrillville Police Department,41.4781,-87.336006,IN0451400,Merrillville,36196,4684,12.94,0,0,0.0,0.0,0.0
KS,Wichita Police Department,37.692635,-97.33823,KS0870300,Wichita,394574,59249,15.02,4478,18809,1134.89,4766.91,5901.81
KS,Overland Park Police Department,38.903667,-94.6714,KS0460600,Overland Park,195249,7914,4.05,402,4460,205.89,2284.26,2490.15
KS,Park City Police Department,37.681045,-97.461054,KS0871600,Park City,195249,7914,4.05,49,309,25.1,158.26,183.36
KS,Olathe Police Department,38.86768,-94.82552,KS0460500,Olathe,140339,8344,5.95,348,1714,247.97,1221.33,1469.3
KS,Topeka Police Department,39.055595,-95.6716,KS0890100,Topeka,126802,18704,14.75,1207,5117,951.88,4035.43,4987.3
KS,Lawrence Police Department,38.963764,-95.23475,KS0230100,Lawrence,94745,16710,17.64,151,752,159.38,793.71,953.08
KS,Shawnee Police Department,39.02212,-94.77992,KS0460900,Shawnee,67021,3926,5.86,151,995,225.3,1484.61,1709.91
KS,Lenexa Police Department,38.971035,-94.73084,KS0461000,Lenexa,56755,2872,5.06,122,864,214.96,1522.33,1737.29
KS,Salina Police Department,38.836975,-97.61358,KS0850100,Salina,46896,5504,11.74,244,1349,520.3,2876.58,3396.88
KS,Hutchinson Police Department,38.053444,-97.93571,KS0780100,Hutchinson,40202,4923,12.25,164,915,407.94,2276.01,2683.95
KS,Leavenworth Police Department,39.314144,-94.91131,KS0520100,Leavenworth,37216,4458,11.98,256,871,687.88,2340.39,3028.27
KS,Leawood Police Department,38.954098,-94.615425,KS0460200,Leawood,33748,676,2.0,34,628,100.75,1860.85,1961.6
KS,Garden City Police Department,38.049855,-100.739929,KS0280100,Garden City,28022,3757,13.41,161,705,574.55,2515.88,3090.43
KS,Dodge City Police Department,37.688365,-99.884734,KS0290100,Dodge City,27899,3814,13.67,102,367,365.6,1315.46,1681.06
KS,Derby Police Department,37.545734,-97.27021,KS0870100,Derby,25365,1775,7.0,15,101,59.14,398.19,457.32
KS,Emporia Police Department,38.455498,-96.161589,KS0560100,Emporia,24220,4126,17.04,94,615,388.11,2539.22,2927.33
KS,Gardner Police Department,38.883907,-94.82233,KS0461200,Gardner,23065,1342,5.82,53,180,229.79,780.4,1010.19
KS,Junction City Police Department,39.031418,-96.82725,KS0310100,Junction City,23033,3766,16.35,162,677,703.34,2939.26,3642.6
KS,Prairie Village Police Department,38.989285,-94.6304,KS0460700,Prairie Village,22812,1005,4.41,22,263,96.44,1152.9,1249.34
KS,Hays Police Department,38.872814,-99.33015,KS0260100,Hays,20870,3490,16.72,27,123,129.37,589.36,718.74
KS,Pittsburg Police Department,37.505628,-94.853941,KS0190100,Pittsburg,20667,5558,26.89,72,824,348.38,3987.03,4335.41
KS,Liberal Police Department,37.180585,-100.854741,KS0880100,Liberal,19340,2622,13.56,60,209,310.24,1080.66,1390.9
KS,Newton Police Department,38.051147,-97.34464,KS0400100,Newton,18576,1945,10.47,132,365,710.59,1964.9,2675.5
KS,Andover Police Department,37.773649,-96.83884,KS0080500,Andover,15162,611,4.03,9,189,59.36,1246.54,1305.9
KS,Great Bend Police Department,38.36352,-98.76655,KS0050200,Great Bend,14864,2444,16.44,62,235,417.12,1581.0,1998.12
KY,Lexington Police Department,38.045673,-84.496284,KY0340200,Lexington,321354,48501,15.09,812,8827,252.68,2746.82,2999.5
KY,Bowling Green Police Department,36.995796,-86.44383,KY1140100,Bowling Green,71422,16449,23.03,184,2235,257.62,3129.29,3386.91
KY,Owensboro Police Department,37.731671,-87.087139,KY0300100,Owensboro,59839,11654,19.48,187,1956,312.51,3268.77,3581.28
KY,Covington Police Department,38.930477,-84.533492,KY0590100,Covington,40930,9556,23.35,122,780,298.07,1905.69,2203.76
KY,Georgetown Police Department,38.289882,-84.579376,KY1050100,Georgetown,36281,4271,11.77,50,521,137.81,1436.01,1573.83
KY,Richmond Police Department,37.723528,-84.277008,KY0760200,Richmond,34662,7339,21.17,86,913,248.11,2634.01,2882.12
KY,Florence Police Department,38.996952,-84.6432,KY0080200,Florence,31699,2401,7.57,45,1454,141.96,4586.9,4728.86
KY,Elizabethtown Police Department,37.687885,-85.86853,KY0470100,Elizabethtown,31066,3594,11.57,44,297,141.63,956.03,1097.66
KY,Nicholasville Police Department,37.885975,-84.570656,KY0570100,Nicholasville,31066,4564,14.69,40,545,128.76,1754.33,1883.09
KY,Hopkinsville Police Department,36.870354,-87.486595,KY0240100,Hopkinsville,30771,5915,19.22,112,966,363.98,3139.32,3503.3
KY,Frankfort Police Department,38.234919,-84.868786,KY0370100,Frankfort,28479,4416,15.51,66,596,231.75,2092.77,2324.52
KY,Independence Police Department,38.933533,-84.544464,KY0591900,Independence,28256,2182,7.72,21,98,74.32,346.83,421.15
KY,Henderson Police Department,37.792542,-87.572577,KY0510100,Henderson,28201,5415,19.2,80,646,283.68,2290.7,2574.38
KY,Paducah Police Department,37.053683,-88.712366,KY0730100,Paducah,26248,5699,21.71,89,773,339.07,2944.99,3284.06
KY,Radcliff Police Department,37.838306,-85.94496,KY0470200,Radcliff,22839,4077,17.85,54,462,236.44,2022.86,2259.29
KY,Ashland Police Department,38.360004,-82.681406,KY0100100,Ashland,21695,4901,22.59,42,614,193.59,2830.15,3023.74
KY,Madisonville Police Department,37.32837,-87.50038,KY0540100,Madisonville,19533,4255,21.78,23,165,117.75,844.72,962.47
KY,Erlanger Police Department,39.023567,-84.60823,KY0590300,Erlanger,19506,2052,10.52,28,82,143.55,420.38,563.93
KY,Winchester Police Department,37.970133,-84.144974,KY0250100,Winchester,18993,3659,19.26,52,576,273.79,3032.7,3306.48
KY,Mount Washington Police Department,37.969572,-85.703036,KY0150300,Mount Washington,17723,1269,7.16,9,107,50.78,603.74,654.52
KY,St. Matthews Police Department,38.249447,-85.65038,KY0560300,St. Matthews,17588,1381,7.85,25,837,142.14,4758.93,4901.07
KY,Murray Police Department,36.60865,-88.302155,KY0180100,Murray,17241,3105,18.01,18,314,104.4,1821.24,1925.64
KY,Fort Thomas Police Department,39.080936,-84.449165,KY0190400,Fort Thomas,17241,1001,5.81,8,97,46.4,562.61,609.01
KY,Danville Police Department,37.618104,-84.868352,KY0110100,Danville,17164,2638,15.37,30,267,174.78,1555.58,1730.37
KY,Shelbyville Police Department,38.21079,-85.212906,KY1060100,Shelbyville,16932,1642,9.7,21,206,124.03,1216.63,1340.66
LA,New Orleans Police Department,29.960224,-90.09213,LANPD0000,New Orleans,383974,88675,23.09,4962,18536,1292.27,4827.41,6119.69
LA,Baton Rouge Police Department,30.544002,-91.093174,LA0170200,Baton Rouge,225539,53100,23.54,2204,12126,977.21,5376.45,6353.67
LA,Shreveport Police Department,32.501125,-93.754555,LA0090100,Shreveport,189374,45297,23.92,1324,7916,699.15,4180.09,4879.23
LA,Lafayette Police Department,30.206507,-92.06417,LA0280300,Lafayette,122469,23039,18.81,993,5586,810.82,4561.15,5371.97
LA,Lake Charles Police Department,30.229559,-93.358015,LA0100200,Lake Charles,83444,16881,20.23,486,2247,582.43,2692.82,3275.25
LA,Kenner Police Department,29.677888,-90.100494,LA0260300,Kenner,66411,10251,15.44,203,2026,305.67,3050.7,3356.37
LA,Bossier City Police Department,32.696225,-93.618086,LA0080100,Bossier City,63168,12259,19.41,571,2869,903.94,4541.86,5445.8
LA,Monroe Police Department,32.477664,-92.154848,LA0370100,Monroe,48105,15676,32.59,977,2811,2030.97,5843.47,7874.44
LA,Alexandria Police Department,31.193204,-92.535953,LA0400100,Alexandria,45736,11997,26.23,857,2783,1873.8,6084.92,7958.72
LA,Houma Police Department,29.333258,-90.844212,LA0550100,Houma,33461,6480,19.37,189,1099,564.84,3284.42,3849.26
LA,New Iberia Police Department,30.00271,-91.81355,LA0230300,New Iberia,28844,7910,27.42,0,0,0.0,0.0,0.0
LA,Slidell Police Department,30.274563,-89.78045,LA0520200,Slidell,28537,3962,13.88,89,744,311.88,2607.14,2919.02
LA,Ruston Police Department,32.601823,-92.662303,LA0310200,Ruston,22286,7266,32.6,144,888,646.15,3984.56,4630.71
LA,Hammond Police Department,30.621581,-90.406633,LA0530100,Hammond,19374,6088,31.42,0,0,0.0,0.0,0.0
LA,Zachary Police Department,30.544002,-91.093174,LA0170300,Zachary,19278,1129,5.86,69,449,357.92,2329.08,2687.0
LA,Natchitoches Police Department,31.734982,-93.086106,LA0350100,Natchitoches,18105,6232,34.42,0,0,0.0,0.0,0.0
LA,Gretna Police Department,29.677888,-90.100494,LA0260100,Gretna,17836,3874,21.72,80,633,448.53,3549.0,3997.53
LA,Opelousas Police Department,30.53644,-92.08239,LA0490200,Opelousas,15884,5705,35.92,258,887,1624.28,5584.24,7208.51
LA,Thibodaux Police Department,29.491992,-90.394849,LA0290500,Thibodaux,15242,2515,16.5,56,425,367.41,2788.35,3155.75
LA,Youngsville Police Department,30.206507,-92.06417,LA0280500,Youngsville,15167,889,5.86,0,0,0.0,0.0,0.0
LA,Pineville Police Department,31.324041,-92.43274,LA0400200,Pineville,14653,2050,13.99,0,0,0.0,0.0,0.0
LA,West Monroe Police Department,32.520428,-92.14767,LA0370200,West Monroe,13103,3766,28.74,169,735,1289.78,5609.4,6899.18
LA,Broussard Police Department,30.147108,-91.96057,LA0280100,Broussard,12960,2111,16.29,25,285,192.9,2199.07,2391.98
LA,Baker Police Department,30.589071,-91.165436,LA0170100,Baker,12736,1883,14.78,47,215,369.03,1688.13,2057.16
LA,Minden Police Department,32.732152,-93.339825,LA0600100,Minden,12145,3753,30.9,0,0,0.0,0.0,0.0
MA,Boston Police Department,42.33196,-71.020173,MA0130100,Boston,672814,110995,16.5,4034,12526,599.57,1861.73,2461.3
MA,Worcester Police Department,42.27213,-71.79874,MA0146000,Worcester,203867,36633,17.97,729,1470,357.59,721.06,1078.64
MA,Springfield Police Department,42.108536,-72.584915,MA0071800,Springfield,155770,39495,25.35,1358,4626,871.8,2969.76,3841.56
MA,Cambridge Police Department,42.36524,-71.10541,MA0091100,Cambridge,116892,12382,10.59,570,2859,487.63,2445.85,2933.48
MA,Lowell Police Department,42.64813,-71.31313,MA0092600,Lowell,114804,19294,16.81,171,990,148.95,862.34,1011.29
MA,Brockton Police Department,42.085533,-71.01567,MA0120300,Brockton,104216,11811,11.33,697,2174,668.8,2086.05,2754.86
MA,Quincy Police Department,42.25548,-70.99678,MA0112000,Quincy,100544,10717,10.66,351,1147,349.1,1140.79,1489.89
MA,New Bedford Police Department,41.638344,-70.94959,MA0031100,New Bedford,100309,18472,18.42,508,1572,506.44,1567.16,2073.59
MA,Bedford Police Department,42.493195,-71.282936,MA0090600,Bedford,100309,18472,18.42,8,68,7.98,67.79,75.77
MA,Lynn Police Department,42.46463,-70.949905,MA0051400,Lynn,100233,14868,14.83,466,1001,464.92,998.67,1463.59
MA,Fall River Police Department,41.78334,-71.12577,MA0030800,Fall River,93339,17464,18.71,854,1356,914.94,1452.77,2367.71
MA,Newton Police Department,42.34906,-71.22799,MA0093300,Newton,88647,3438,3.88,51,484,57.53,545.99,603.52
MA,Lawrence Police Department,42.708637,-71.165016,MA0051300,Lawrence,87798,16625,18.94,421,938,479.51,1068.36,1547.87
MA,Somerville Police Department,42.379456,-71.092606,MA0093900,Somerville,80608,8101,10.05,196,1132,243.15,1404.33,1647.48
MA,Framingham Police Department,42.481711,-71.394917,MA0091800,Framingham,72089,7259,10.07,204,777,282.98,1077.83,1360.82
MA,Haverhill Police Department,42.727875,-71.011185,MA0051100,Haverhill,67093,7125,10.62,343,560,511.23,834.66,1345.89
MA,Malden Police Department,42.481711,-71.394917,MA0092700,Malden,65602,9595,14.63,171,907,260.66,1382.58,1643.24
MA,Waltham Police Department,42.481711,-71.394917,MA0094700,Waltham,64655,5048,7.81,160,538,247.47,832.11,1079.58
MA,Brookline Police Department,42.333908,-71.12126,MA0110400,Brookline,62620,6220,9.93,41,495,65.47,790.48,855.96
MA,Revere Police Department,42.40302,-71.00097,MA0130400,Revere,60720,7811,12.86,230,835,378.79,1375.16,1753.95
MA,Medford Police Department,42.416054,-71.11058,MA0093000,Medford,60708,4432,7.3,130,689,214.14,1134.94,1349.08
MA,Taunton Police Department,41.90118,-71.08913,MA0031900,Taunton,59076,7881,13.34,286,535,484.12,905.61,1389.74
MA,Weymouth Police Department,42.200764,-70.94817,MA0112700,Weymouth,57217,3413,5.97,187,613,326.83,1071.36,1398.19
MA,Chicopee Police Department,42.155155,-72.58503,MA0070500,Chicopee,55636,7972,14.33,317,1021,569.77,1835.14,2404.92
MA,Peabody Police Department,42.521538,-70.939514,MA0052500,Peabody,54200,4320,7.97,149,455,274.91,839.48,1114.39
MD,Baltimore City Sheriff's Office,39.23499,-76.61133,MD0040600,Baltimore City Sheriff's Office,592211,115748,19.55,0,0,0.0,0.0,0.0
MD,Baltimore Police Department,39.32253,-76.62148,MDBPD0000,Baltimore,592211,115748,19.55,8887,24319,1500.65,4106.48,5607.12
MD,Frederick Police Department,39.414253,-77.41244,MD0110300,Frederick,76376,7550,9.89,322,1551,421.6,2030.74,2452.34
MD,Gaithersburg Police Department,39.140232,-77.19374,MD0160200,Gaithersburg,68827,7444,10.82,159,1021,231.01,1483.43,1714.44
MD,Rockville Police Department,39.137381,-77.203063,MD0160500,Rockville,67095,4638,6.91,94,863,140.1,1286.24,1426.34
MD,Bowie Police Department,38.960632,-76.74079,MD0174100,Bowie,58113,1898,3.27,88,810,151.43,1393.84,1545.27
MD,Hagerstown Police Department,39.603621,-77.814671,MD0220300,Hagerstown,43015,10766,25.03,297,931,690.46,2164.36,2854.82
MD,Annapolis Police Department,38.993374,-76.560511,MD0020100,Annapolis,40581,3680,9.07,273,957,672.73,2358.25,3030.98
MD,Salisbury Police Department,38.36716,-75.632027,MD0230300,Salisbury,32583,7762,23.82,367,985,1126.35,3023.05,4149.4
MD,Laurel Police Department,39.10615,-76.8445,MD0171700,Laurel,29438,2850,9.68,194,1292,659.01,4388.89,5047.9
MD,Greenbelt Police Department,38.82588,-76.847272,MD0171400,Greenbelt,24602,3905,15.87,167,1347,678.81,5475.16,6153.97
MD,Landover Hills Police Department,38.82588,-76.847272,MD0171600,Landover Hills,24508,4502,18.37,39,74,159.13,301.94,461.07
MD,Hyattsville Police Department,38.95264,-76.94278,MD0171500,Hyattsville,20790,1881,9.05,199,918,957.19,4415.58,5372.78
MD,Westminster Police Department,39.57562,-76.99303,MD0070800,Westminster,19783,2201,11.13,53,358,267.91,1809.63,2077.54
MD,Cumberland Police Department,39.612309,-78.703108,MD0010200,Cumberland,19028,3567,18.75,117,807,614.88,4241.12,4856.0
MD,Takoma Park Police Department,38.98107,-77.01026,MD0160600,Takoma Park,17610,1363,7.74,92,994,522.43,5644.52,6166.95
MD,Easton Police Department,38.749427,-76.17913,MD0210100,Easton,16912,1618,9.57,68,342,402.08,2022.23,2424.31
MD,Elkton Police Department,39.610645,-75.83182,MD0080400,Elkton,15724,3164,20.12,138,760,877.64,4833.38,5711.02
MD,Havre de Grace Police Department,39.548725,-76.09505,MD0130300,Havre de Grace,14625,1476,10.09,27,207,184.62,1415.38,1600.0
MD,New Carrollton Police Department,38.82588,-76.847272,MD0173900,New Carrollton,13574,946,6.97,47,312,346.25,2298.51,2644.76
MD,Cambridge Police Department,38.56043,-76.06745,MD0100100,Cambridge,13026,2947,22.62,102,523,783.05,4015.05,4798.1
MD,Rock Hall Police Department,39.239178,-76.124203,MD0150400,Rock Hall,12764,238,1.86,0,4,0.0,31.34,31.34
MD,La Plata Police Department,38.472853,-77.015427,MD0090100,La Plata,10054,280,2.78,22,210,218.82,2088.72,2307.54
MD,Chevy Chase Village Police Department,38.97001,-77.07716,MD0160100,Chevy Chase Village,9889,163,1.65,0,50,0.0,505.61,505.61
MD,Bladensburg Police Department,38.942184,-76.9332,MD0170200,Bladensburg,9591,820,8.55,64,382,667.29,3982.9,4650.19
ME,Portland Police Department,43.658966,-70.25237,ME0030500,Portland,68063,8453,12.42,156,1185,229.2,1741.03,1970.23
ME,Lewiston Police Department,44.093903,-70.2145,ME0010200,Lewiston,36615,5612,15.33,126,663,344.12,1810.73,2154.85
ME,Bangor Police Department,44.798046,-68.77305,ME0100100,Bangor,31920,4812,15.08,54,1267,169.17,3969.3,4138.47
ME,South Portland Police Department,43.63255,-70.257835,ME0030600,South Portland,26428,1540,5.83,29,316,109.73,1195.7,1305.43
ME,Auburn Police Department,44.097458,-70.22578,ME0010100,Auburn,23790,2583,10.86,35,512,147.12,2152.16,2299.29
ME,Biddeford Police Department,43.427239,-70.670402,ME0160100,Biddeford,22331,2827,12.66,73,694,326.9,3107.79,3434.69
ME,Sanford Police Department,43.43846,-70.7748,ME0160500,Sanford,21812,2034,9.33,41,574,187.97,2631.58,2819.55
ME,Saco Police Department,43.497833,-70.447,ME0160400,Saco,20203,1847,9.14,25,303,123.74,1499.78,1623.52
ME,Westbrook Police Department,43.679535,-70.35402,ME0030800,Westbrook,20074,2053,10.23,39,233,194.28,1160.71,1354.99
ME,Augusta Police Department,44.417012,-69.765764,ME0060100,Augusta,18895,3519,18.62,55,810,291.08,4286.85,4577.93
ME,Brunswick Police Department,43.9161,-69.96341,ME0030100,Brunswick,16554,1408,8.51,26,288,157.06,1739.76,1896.82
ME,Waterville Police Department,44.54938,-69.628716,ME0060400,Waterville,15872,3176,20.01,33,546,207.91,3440.02,3647.93
ME,Orono Police Department,45.390602,-68.657487,ME0100600,Orono,10426,2221,21.3,2,26,19.18,249.38,268.56
ME,Brewer Police Department,44.779922,-68.76124,ME0100200,Brewer,9606,1446,15.05,2,211,20.82,2196.54,2217.36
ME,Old Orchard Beach Police Department,43.523678,-70.37783,ME0160300,Old Orchard Beach,8954,942,10.52,19,120,212.2,1340.18,1552.38
ME,Presque Isle Police Department,46.688232,-68.007095,ME0020600,Presque Isle,8859,1345,15.18,19,258,214.47,2912.29,3126.76
ME,Bath Police Department,43.9134,-69.815414,ME0120100,Bath,8718,1076,12.34,2,76,22.94,871.76,894.7
ME,Ellsworth Police Department,44.564906,-68.370703,ME0050200,Ellsworth,8340,675,8.09,20,213,239.81,2553.96,2793.76
ME,Caribou Police Department,46.727057,-68.64941,ME0020100,Caribou,7448,1011,13.57,5,53,67.13,711.6,778.73
ME,Old Town Police Department,44.92838,-68.64624,ME0100500,Old Town,7415,1552,20.93,2,98,26.97,1321.65,1348.62
ME,Gorham Police Department,43.684464,-70.42726,ME0030400,Gorham,7378,207,2.81,4,72,54.22,975.87,1030.09
ME,Rockland Police Department,44.042045,-69.038514,ME0070200,Rockland,6977,945,13.54,7,85,100.33,1218.29,1318.62
ME,Belfast Police Department,44.505451,-69.139632,ME0140100,Belfast,6890,1277,18.53,5,41,72.57,595.07,667.63
ME,Topsham Police Department,43.916694,-69.843994,ME0120200,Topsham,6854,843,12.3,3,128,43.77,1867.52,1911.29
ME,Skowhegan Police Department,44.766346,-69.71658,ME0130200,Skowhegan,6344,951,14.99,13,276,204.92,4350.57,4555.49
MI,Detroit Police Department,42.33564,-83.04305,MI8234900,Detroit,645658,202311,31.33,12632,29612,1956.45,4586.33,6542.78
MI,Warren Police Department,42.671467,-82.910869,MI5080600,Warren,138996,21113,15.19,768,2534,552.53,1823.07,2375.61
MI,Sterling Heights Police Department,42.59104,-83.01116,MI5076500,Sterling Heights,134062,13054,9.74,222,1475,165.6,1100.24,1265.83
MI,Ann Arbor Police Department,42.252327,-83.844634,MI8121800,Ann Arbor,122731,24786,20.2,369,2072,300.66,1688.25,1988.9
MI,Dearborn Police Department,42.314945,-83.19971,MI8234300,Dearborn,107985,26603,24.64,323,2285,299.12,2116.03,2415.15
MI,Livonia Police Department,42.284664,-83.261953,MI8253800,Livonia,95294,4416,4.63,238,1388,249.75,1456.55,1706.3
MI,Westland Police Department,42.32417,-83.40208,MI8281700,Westland,84961,11469,13.5,435,1357,512.0,1597.2,2109.2
MI,Farmington Hills Police Department,42.484615,-83.3609,MI6338900,Farmington Hills,83749,4793,5.72,131,931,156.42,1111.66,1268.07
MI,Flint Police Department,43.01188,-83.68639,MI2539800,Flint,83312,28884,34.67,1128,1376,1353.95,1651.62,3005.57
MI,Wyoming Police Department,42.921856,-85.69716,MI4183400,Wyoming,76625,8688,11.34,379,1977,494.62,2580.1,3074.71
MI,Southfield Police Department,42.48026,-83.24084,MI6375100,Southfield,76196,8274,10.86,406,2076,532.84,2724.55,3257.39
MI,Kalamazoo Police Department,42.28092,-85.58168,MI3949900,Kalamazoo,74020,18822,25.43,908,3058,1226.7,4131.32,5358.01
MI,Taylor Police Department,42.226578,-83.2629,MI8277500,Taylor,63071,9344,14.82,451,1254,715.07,1988.24,2703.3
MI,Dearborn Heights Police Department,42.29735,-83.288826,MI8234400,Dearborn Heights,62334,12488,20.03,259,993,415.5,1593.03,2008.53
MI,St. Clair Shores Police Department,42.496677,-82.888504,MI5072200,St. Clair Shores,59046,4471,7.57,86,595,145.65,1007.69,1153.34
MI,Royal Oak Police Department,42.660452,-83.38421,MI6371400,Royal Oak,58368,3636,6.23,92,536,157.62,918.31,1075.93
MI,Kentwood Police Department,42.880886,-85.59636,MI4185000,Kentwood,53884,5365,9.96,277,1500,514.07,2783.76,3297.82
MI,Battle Creek Police Department,42.31664,-85.1799,MI1323700,Battle Creek,52434,11331,21.61,793,1810,1512.38,3451.96,4964.34
MI,Portage Police Department,42.201576,-85.5913,MI3967800,Portage,48767,3580,7.34,132,1659,270.67,3401.89,3672.57
MI,Roseville Police Department,42.671467,-82.910869,MI5071300,Roseville,47692,6411,13.44,240,1689,503.23,3541.47,4044.7
MI,East Lansing Police Department,42.603534,-84.373811,MI3336400,East Lansing,47427,11543,24.34,104,693,219.28,1461.19,1680.48
MI,Lansing Police Department,42.733696,-84.55264,MI3351900,Lansing,47427,11543,24.34,1582,3193,3335.65,6732.45,10068.1
MI,Saginaw Police Department,43.328267,-84.05541,MI7371700,Saginaw,44796,15613,34.85,978,985,2183.23,2198.86,4382.09
MI,Midland Police Department,43.614353,-84.24713,MI5658300,Midland,42425,4348,10.25,46,246,108.43,579.85,688.27
MI,Lincoln Park Police Department,42.250534,-83.18071,MI8253400,Lincoln Park,39741,8308,20.91,230,755,578.75,1899.8,2478.55
MN,Minneapolis Police Department,44.987347,-93.249756,MN0271100,Minneapolis,425091,69868,16.44,4791,22318,1127.05,5250.17,6377.22
MN,Rochester Police Department,44.019302,-92.460846,MN0550100,Rochester,119732,10190,8.51,199,1945,166.2,1624.46,1790.67
MN,Bloomington Police Department,44.822388,-93.30388,MN0270100,Bloomington,89436,7178,8.03,267,3413,298.54,3816.14,4114.67
MN,Duluth Police Department,47.578635,-92.51457,MN0690600,Duluth,86711,14172,16.34,229,2533,264.1,2921.2,3185.29
MN,Brooklyn Park Police Department,45.10883,-93.34976,MN0270300,Brooklyn Park,85247,7391,8.67,314,2258,368.34,2648.77,3017.11
MN,Plymouth Police Department,45.022762,-93.47739,MN0271700,Plymouth,80034,3034,3.79,55,847,68.72,1058.3,1127.02
MN,Woodbury Police Department,45.037929,-92.890117,MN0821100,Woodbury,74014,3120,4.22,47,1044,63.5,1410.54,1474.05
MN,Maple Grove Police Department,45.006069,-93.475187,MN0272700,Maple Grove,69900,3233,4.63,68,1285,97.28,1838.34,1935.62
MN,Lakeville Police Department,44.656586,-93.24271,MN0191100,Lakeville,69026,2686,3.89,72,539,104.31,780.87,885.17
MN,Blaine Police Department,45.27411,-93.242723,MN0020200,Blaine,68999,3821,5.54,62,1247,89.86,1807.27,1897.13
MN,St. Cloud Police Department,45.555235,-94.610482,MN0730400,St. Cloud,68430,14170,20.71,240,2434,350.72,3556.92,3907.64
MN,Eagan Police Department,44.818928,-93.167145,MN0190800,Eagan,68205,3921,5.75,76,1331,111.43,1951.47,2062.9
MN,Eden Prairie Police Department,44.856937,-93.460175,MN0272600,Eden Prairie,64048,3185,4.97,38,856,59.33,1336.5,1395.83
MN,Burnsville Police Department,44.670893,-93.062481,MN0190100,Burnsville,63926,4384,6.86,169,1283,264.37,2007.01,2271.38
MN,Coon Rapids Police Department,45.172855,-93.30436,MN0020500,Coon Rapids,63269,3916,6.19,115,964,181.76,1523.65,1705.42
MN,Apple Valley Police Department,44.73532,-93.20977,MN0191000,Apple Valley,55237,2582,4.67,134,1017,242.59,1841.16,2083.75
MN,Minnetonka Police Department,44.939854,-93.46169,MN0271200,Minnetonka,53809,2409,4.48,41,884,76.2,1642.85,1719.04
MN,Edina Police Department,44.911552,-93.34768,MN0270600,Edina,53059,2257,4.25,42,937,79.16,1765.96,1845.12
MN,St. Louis Park Police Department,44.947575,-93.34395,MN0272100,St. Louis Park,49539,3164,6.39,68,1597,137.27,3223.72,3360.99
MN,Moorhead Police Department,46.884712,-96.765564,MN0140400,Moorhead,44129,7302,16.55,233,819,528.0,1855.92,2383.92
MN,Mankato Police Department,44.161644,-94.00835,MN0070100,Mankato,43938,9106,20.72,136,1282,309.53,2917.75,3227.27
MN,Shakopee Police Department,44.796043,-93.51105,MN0700400,Shakopee,43396,2293,5.28,63,614,145.17,1414.88,1560.05
MN,Maplewood Police Department,45.01525,-93.100141,MN0620400,Maplewood,41673,4201,10.08,149,1221,357.55,2929.95,3287.5
MN,Cottage Grove Police Department,44.833565,-92.95351,MN0820700,Cottage Grove,38582,1199,3.11,31,294,80.35,762.01,842.36
MN,Richfield Police Department,44.88162,-93.26794,MN0271800,Richfield,36899,2659,7.21,86,780,233.07,2113.88,2346.95
MO,North Kansas City Police Department,39.143047,-94.57261,MO0240700,North Kansas City,502597,74087,14.74,42,582,8.36,115.8,124.16
MO,Kansas City Police Department,39.100594,-94.57735,MOKPD0000,Kansas City,502597,74087,14.74,7535,25393,1499.21,5052.36,6551.57
MO,Springfield Police Department,37.215492,-93.29072,MO0390300,Springfield,168603,33364,19.79,2001,7039,1186.81,4174.9,5361.71
MO,Columbia Police Department,38.989657,-92.310779,MO0100200,Columbia,124342,23021,18.51,502,3284,403.73,2641.1,3044.83
MO,Independence Police Department,39.09326,-94.413155,MO0480600,Independence,122230,17278,14.14,242,1606,197.99,1313.92,1511.9
MO,Lee's Summit Police Department,38.93069,-94.37891,MO0480800,Lee's Summit,100772,4208,4.18,168,2283,166.71,2265.51,2432.22
MO,O'Fallon Police Department,38.802345,-90.62706,MO0920100,O'Fallon,90802,4546,5.01,82,663,90.31,730.16,820.47
MO,St. Joseph Police Department,39.76904,-94.85424,MO0110100,St. Joseph,73138,11967,16.36,528,2648,721.92,3620.55,4342.48
MO,St. Charles Police Department,38.774826,-90.527084,MO0920300,St. Charles,70218,4044,5.76,149,690,212.2,982.65,1194.85
MO,Blue Springs Police Department,39.017525,-94.27792,MO0480100,Blue Springs,58265,3260,5.6,113,1405,193.94,2411.4,2605.34
MO,St. Peters Police Department,38.781102,-90.674915,MO0920400,St. Peters,57289,2094,3.66,131,876,228.67,1529.09,1757.75
MO,Florissant Police Department,38.79943,-90.317116,MO0953000,Florissant,52382,5461,10.43,136,1169,259.63,2231.68,2491.31
MO,Joplin Police Department,37.088596,-94.51099,MO0490700,Joplin,51539,8806,17.09,261,2730,506.41,5296.96,5803.37
MO,Chesterfield Police Department,38.640702,-90.445954,MO0959A00,Chesterfield,49675,1896,3.82,35,585,70.46,1177.65,1248.11
MO,Wentzville Police Department,38.781102,-90.674915,MO0920500,Wentzville,43213,1900,4.4,97,480,224.47,1110.78,1335.25
MO,Jefferson City Police Department,38.574104,-92.171036,MO0260100,Jefferson City,43076,4827,11.21,135,875,313.4,2031.29,2344.69
MO,Cape Girardeau Police Department,37.3036,-89.52708,MO0160100,Cape Girardeau,39415,8104,20.56,258,1058,654.57,2684.26,3338.83
MO,University City Police Department,38.65647,-90.309975,MO0957300,University City,34953,4786,13.69,92,756,263.21,2162.9,2426.12
MO,Ballwin Police Department,38.640702,-90.445954,MO0950200,Ballwin,30998,1761,5.68,22,193,70.97,622.62,693.59
MO,Liberty Police Department,39.2461,-94.41923,MO0240600,Liberty,30129,2216,7.36,48,594,159.31,1971.52,2130.84
MO,Raytown Police Department,39.015877,-94.463005,MO0481000,Raytown,29893,2565,8.58,217,1122,725.92,3753.39,4479.31
MO,Kirkwood Police Department,38.602047,-90.35826,MO0954300,Kirkwood,29233,1603,5.48,47,437,160.78,1494.89,1655.66
MO,Maryland Heights Police Department,38.714573,-90.43463,MO0950H00,Maryland Heights,28141,1675,5.95,69,505,245.19,1794.53,2039.73
MO,Gladstone Police Department,39.00026,-94.57986,MO0240400,Gladstone,26825,2768,10.32,92,548,342.96,2042.87,2385.83
MO,Grandview Police Department,38.889206,-94.53133,MO0480400,Grandview,25931,3583,13.82,133,959,512.9,3698.28,4211.18
MS,Jackson Police Department,32.29755,-90.184235,MS0250100,Jackson,156803,39261,25.04,0,0,0.0,0.0,0.0
MS,Gulfport Police Department,30.369255,-89.08911,MS0240200,Gulfport,72468,18014,24.86,0,0,0.0,0.0,0.0
MS,Southaven Police Department,34.874266,-89.99324,MS0170100,Southaven,54141,6496,12.0,123,1859,227.18,3433.63,3660.81
MS,Biloxi Police Department,30.398106,-88.90185,MS0240100,Biloxi,49061,6878,14.02,0,0,0.0,0.0,0.0
MS,Hattiesburg Police Department,31.18858,-89.259447,MS0180100,Hattiesburg,47074,14098,29.95,123,2052,261.29,4359.09,4620.38
MS,Olive Branch Police Department,34.874266,-89.99324,MS0170200,Olive Branch,39136,2836,7.25,100,822,255.52,2100.37,2355.89
MS,Tupelo Police Department,34.288965,-88.680887,MS0410100,Tupelo,37872,5249,13.86,167,1618,440.96,4272.29,4713.24
MS,Meridian Police Department,32.363552,-88.70209,MS0380100,Meridian,35625,10463,29.37,0,0,0.0,0.0,0.0
MS,Greenville Police Department,33.273131,-90.94443,MS0760100,Greenville,30175,9595,31.8,0,0,0.0,0.0,0.0
MS,Clinton Police Department,32.339264,-90.32945,MS0250300,Clinton,27830,2471,8.88,29,325,104.2,1167.8,1272.01
MS,Madison Police Department,32.63437,-90.03416,MS0450400,Madison,27459,1278,4.65,12,172,43.7,626.39,670.09
MS,Pearl Police Department,32.274925,-90.1317,MS0610200,Pearl,27017,2757,10.2,0,0,0.0,0.0,0.0
MS,Horn Lake Police Department,34.96262,-90.04809,MS0170400,Horn Lake,26623,3872,14.54,25,528,93.9,1983.25,2077.15
MS,Oxford Police Department,34.374596,-89.52693,MS0360100,Oxford,25859,7336,28.37,39,478,150.82,1848.49,1999.3
MS,Brandon Police Department,32.262057,-89.946552,MS0610100,Brandon,24887,1157,4.65,22,89,88.4,357.62,446.02
MS,Starkville Police Department,33.46273,-88.81639,MS0530100,Starkville,24578,6680,27.18,17,584,69.17,2376.11,2445.28
MS,Ridgeland Police Department,32.63437,-90.03416,MS0450200,Ridgeland,24330,1650,6.78,88,417,361.69,1713.93,2075.63
MS,Columbus Police Department,33.471424,-88.439723,MS0440100,Columbus,23858,6009,25.19,0,0,0.0,0.0,0.0
MS,Pascagoula Police Department,30.458491,-88.619991,MS0300300,Pascagoula,22001,5189,23.59,47,888,213.63,4036.18,4249.81
MS,Vicksburg Police Department,32.357005,-90.851791,MS0750100,Vicksburg,21748,5904,27.15,128,673,588.56,3094.54,3683.1
MS,Gautier Police Department,30.393581,-88.663605,MS0300600,Gautier,18932,3359,17.74,53,420,279.95,2218.47,2498.42
MS,Ocean Springs Police Department,30.458491,-88.619991,MS0300200,Ocean Springs,18275,1320,7.22,7,305,38.3,1668.95,1707.25
MS,Laurel Police Department,31.687548,-89.1341,MS0340200,Laurel,17375,5766,33.19,173,842,995.68,4846.04,5841.73
MS,Hernando Police Department,34.82351,-89.99768,MS0170300,Hernando,16730,1212,7.24,11,101,65.75,603.71,669.46
MS,Long Beach Police Department,30.416536,-89.083376,MS0240300,Long Beach,16654,1548,9.3,3,181,18.01,1086.83,1104.84
MT,Billings Police Department,45.936987,-108.276656,MT0560100,Billings,115689,12517,10.82,1078,4401,931.81,3804.16,4735.97
MT,Great Falls Police Department,47.316443,-111.350571,MT0070100,Great Falls,60381,8546,14.15,342,2837,566.4,4698.5,5264.9
MT,Bozeman Police Department,45.535559,-111.173443,MT0160100,Bozeman,51574,7071,13.71,226,1097,438.21,2127.04,2565.25
MT,Kalispell Police Department,48.314696,-114.054319,MT0150300,Kalispell,24260,2513,10.36,127,748,523.5,3083.26,3606.76
MT,Belgrade Police Department,45.77697,-111.17548,MT0160200,Belgrade,10555,1265,11.98,35,183,331.6,1733.78,2065.37
MT,Havre Police Department,48.550076,-109.67535,MT0210100,Havre,9417,1176,12.49,78,457,828.29,4852.93,5681.21
MT,Deer Lodge Police Department,46.399918,-112.735176,MT0390100,Deer Lodge,9380,2020,21.54,12,34,127.93,362.47,490.41
MT,Miles City Police Department,46.40739,-105.83021,MT0090100,Miles City,8441,1156,13.7,9,84,106.62,995.14,1101.77
MT,Livingston Police Department,45.421905,-110.532798,MT0340100,Livingston,8110,1132,13.96,47,198,579.53,2441.43,3020.96
MT,Whitefish Police Department,48.314696,-114.054319,MT0150200,Whitefish,7783,372,4.78,17,124,218.42,1593.22,1811.64
MT,Laurel Police Department,45.66986,-108.77348,MT0560200,Laurel,7164,673,9.39,35,223,488.55,3112.79,3601.34
MT,Sidney Police Department,47.785513,-104.563387,MT0420100,Sidney,6240,467,7.48,33,35,528.85,560.9,1089.74
MT,Lewistown Police Department,47.064312,-109.42455,MT0140100,Lewistown,5967,1090,18.27,34,34,569.8,569.8,1139.6
MT,Columbia Falls Police Department,48.373276,-114.18298,MT0150100,Columbia Falls,5304,582,10.97,23,105,433.63,1979.64,2413.27
MT,Polson Police Department,47.695354,-114.16184,MT0240100,Polson,5161,691,13.39,49,222,949.43,4301.49,5250.92
MT,Hamilton Police Department,46.245712,-114.15697,MT0410100,Hamilton,4632,780,16.84,33,140,712.44,3022.45,3734.89
MT,Dillon Police Department,45.21792,-112.63559,MT0010100,Dillon,3930,839,21.35,15,23,381.68,585.24,966.92
MT,Glasgow Police Department,48.34998,-106.670514,MT0530100,Glasgow,3192,247,7.74,17,42,532.58,1315.79,1848.37
MT,Cut Bank Police Department,48.635544,-112.330734,MT0180200,Cut Bank,3049,656,21.52,19,114,623.16,3738.93,4362.09
MT,Conrad Police Department,48.16878,-111.94701,MT0370100,Conrad,2758,460,16.68,6,25,217.55,906.45,1124.0
MT,Libby Police Department,48.542232,-115.404343,MT0270100,Libby,2745,607,22.11,5,27,182.15,983.61,1165.76
MT,Wolf Point Police Department,48.089935,-105.64279,MT0430200,Wolf Point,2638,765,29.0,34,34,1288.86,1288.86,2577.71
MT,Missoula Police Department,46.873913,-113.99474,MT0320100,Missoula,2162,224,10.36,429,2921,19842.74,135106.38,154949.12
MT,Colstrip Police Department,46.161718,-106.701989,MT0440300,Colstrip,2094,155,7.4,1,5,47.76,238.78,286.53
MT,Columbus Police Department,45.658928,-109.382156,MT0480100,Columbus,2069,124,5.99,7,47,338.33,2271.63,2609.96
NC,Raleigh Police Department,35.789846,-78.650624,NC0920100,Raleigh,462219,53762,11.63,2551,12555,551.9,2716.24,3268.15
NC,Greensboro Police Department,36.070328,-79.79291,NC0410200,Greensboro,295483,48985,16.58,2507,11411,848.44,3861.81,4710.25
NC,Durham Police Department,35.99697,-78.90893,NC0320100,Durham,279106,36315,13.01,1884,11185,675.01,4007.44,4682.45
NC,Fayetteville Police Department,35.054447,-78.88379,NC0260100,Fayetteville,208497,36951,17.72,1834,6490,879.63,3112.75,3992.38
NC,Cary Police Department,35.789846,-78.650624,NC0920300,Cary,171603,9717,5.66,192,2260,111.89,1316.99,1428.88
NC,Wilmington Police Department,34.177466,-77.871378,NC0650200,Wilmington,115976,20861,17.99,598,4313,515.62,3718.87,4234.5
NC,High Point Police Department,35.95928,-79.99295,NC0410300,High Point,113148,15774,13.94,517,2964,456.92,2619.58,3076.5
NC,Concord Police Department,35.387845,-80.552868,NC0130100,Concord,102566,8405,8.19,125,1100,121.87,1072.48,1194.35
NC,Asheville Police Department,35.609371,-82.530426,NC0110100,Asheville,93272,11160,11.97,791,4262,848.06,4569.43,5417.49
NC,Greenville Police Department,35.591095,-77.372376,NC0740300,Greenville,87815,21423,24.4,493,2885,561.41,3285.32,3846.72
NC,Gastonia Police Department,35.293344,-81.177256,NC0360600,Gastonia,79483,11152,14.03,666,3217,837.92,4047.41,4885.32
NC,Jacksonville Police Department,34.763109,-77.499469,NC0670100,Jacksonville,73224,8785,12.0,61,349,83.31,476.62,559.93
NC,Chapel Hill Police Department,35.92805,-79.05418,NC0680100,Chapel Hill,60920,9793,16.08,116,1683,190.41,2762.64,2953.05
NC,Huntersville Police Department,35.246862,-80.833832,NC0600600,Huntersville,60166,2511,4.17,129,924,214.41,1535.75,1750.16
NC,Apex Police Department,35.733063,-78.85477,NC0920200,Apex,58066,1909,3.29,39,676,67.16,1164.19,1231.36
NC,Burlington Police Department,36.041974,-79.399935,NC0010100,Burlington,56563,9645,17.05,498,2246,880.43,3970.79,4851.23
NC,Rocky Mount Police Department,35.965945,-77.987555,NC0330100,Rocky Mount,54375,10102,18.58,472,1771,868.05,3257.01,4125.06
NC,Kannapolis Police Department,35.493385,-80.62674,NC0130200,Kannapolis,52173,6649,12.74,128,1124,245.34,2154.37,2399.71
NC,Mooresville Police Department,35.806356,-80.874545,NC0490100,Mooresville,48431,3933,8.12,107,1169,220.93,2413.74,2634.68
NC,Wilson Police Department,35.700351,-77.921602,NC0980100,Wilson,47914,9924,20.71,250,1272,521.77,2654.76,3176.52
NC,Wake Forest Police Department,35.789846,-78.650624,NC0920700,Wake Forest,46387,1510,3.26,84,837,181.09,1804.38,1985.47
NC,Hickory Police Department,35.729954,-81.343346,NC0180200,Hickory,42831,6893,16.09,220,1338,513.65,3123.91,3637.55
NC,Holly Springs Police Department,35.789846,-78.650624,NC0921700,Holly Springs,40198,1625,4.04,39,496,97.02,1233.89,1330.91
NC,Salisbury Police Department,35.639218,-80.525344,NC0800500,Salisbury,35258,7574,21.48,350,1483,992.68,4206.14,5198.82
NC,Monroe Police Department,34.991501,-80.530131,NC0900200,Monroe,34464,4609,13.37,313,1327,908.19,3850.39,4758.59
ND,Fargo Police Department,46.927003,-97.252375,ND0090200,Fargo,124979,15636,12.51,692,5231,553.69,4185.5,4739.2
ND,Bismarck Police Department,46.80085,-100.778694,ND0080100,Bismarck,73321,6179,8.43,236,2338,321.87,3188.72,3510.59
ND,Grand Forks Police Department,47.926003,-97.450851,ND0180100,Grand Forks,58867,9925,16.86,154,1494,261.61,2537.92,2799.53
ND,Minot Police Department,48.234222,-101.30105,ND0510200,Minot,48005,5516,11.49,181,694,377.04,1445.68,1822.73
ND,West Fargo Police Department,46.872604,-96.88475,ND0090300,West Fargo,37913,2377,6.27,80,534,211.01,1408.49,1619.5
ND,Williston Police Department,48.345867,-103.4874,ND0530200,Williston,27368,2055,7.51,122,677,445.78,2473.69,2919.47
ND,Dickinson Police Department,46.89417,-102.78564,ND0450100,Dickinson,24851,2959,11.91,67,457,269.61,1838.96,2108.57
ND,Mandan Police Department,46.82736,-100.89153,ND0300200,Mandan,23784,2066,8.69,87,885,365.79,3720.99,4086.78
ND,Jamestown Police Department,46.903137,-98.70666,ND0470100,Jamestown,15823,2051,12.96,30,295,189.6,1864.37,2053.97
ND,Wahpeton Police Department,46.266014,-96.60567,ND0390300,Wahpeton,7928,1212,15.29,21,154,264.88,1942.48,2207.37
ND,Devils Lake Police Department,48.107742,-98.867455,ND0360100,Devils Lake,7201,1403,19.48,18,114,249.97,1583.11,1833.08
ND,Watford City Police Department,47.742475,-103.403215,ND0270100,Watford City,5725,641,11.2,20,157,349.34,2742.36,3091.7
ND,Grafton Police Department,48.418118,-97.40549,ND0500100,Grafton,4186,408,9.75,6,70,143.33,1672.24,1815.58
ND,Lincoln Police Department,46.764328,-100.69424,ND0080300,Lincoln,4126,491,11.9,3,22,72.71,533.2,605.91
ND,Beulah Police Department,47.307175,-101.833261,ND0290100,Beulah,3070,185,6.03,4,23,130.29,749.19,879.48
ND,New Town Police Department,48.210291,-102.364756,ND0310100,New Town,2745,594,21.64,0,3,0.0,109.29,109.29
ND,Hazen Police Department,47.307175,-101.833261,ND0290200,Hazen,2564,297,11.58,0,2,0.0,78.0,78.0
ND,Rugby Police Department,48.37129,-99.97709,ND0350100,Rugby,2546,328,12.88,1,17,39.28,667.71,706.99
ND,Carrington Police Department,47.44954,-99.12645,ND0160100,Carrington,2133,181,8.49,2,9,93.76,421.94,515.71
ND,Lisbon Police Department,46.449276,-97.647554,ND0370200,Lisbon,2109,403,19.11,0,17,0.0,806.07,806.07
ND,Stanley Police Department,48.210291,-102.364756,ND0310300,Stanley,2079,104,5.0,2,30,96.2,1443.0,1539.2
ND,Oakes Police Department,46.140102,-98.09345,ND0110200,Oakes,1981,72,3.63,1,0,50.48,0.0,50.48
ND,Harvey Police Department,47.770348,-99.93452,ND0520100,Harvey,1701,196,11.52,1,6,58.79,352.73,411.52
ND,Bowman Police Department,46.110144,-103.505943,ND0060100,Bowman,1604,162,10.1,3,15,187.03,935.16,1122.19
ND,Burlington Police Department,48.216686,-101.540537,ND0510300,Burlington,1534,65,4.24,1,5,65.19,325.95,391.13
NE,Omaha Police Department,41.297091,-96.154066,NB0280200,Omaha,488059,57642,11.81,829,8130,169.86,1665.78,1835.64
NE,Lincoln Police Department,40.783547,-96.688658,NB0550100,Lincoln,289136,35909,12.42,1073,7948,371.11,2748.88,3119.99
NE,Bellevue Police Department,41.115064,-96.109125,NB0770100,Bellevue,62888,5443,8.66,73,1000,116.08,1590.13,1706.21
NE,Grand Island Police Department,40.866023,-98.498004,NB0400100,Grand Island,52755,6600,12.51,214,1093,405.65,2071.84,2477.49
NE,Kearney Police Department,40.855226,-99.074983,NB0100100,Kearney,33558,4892,14.58,101,638,300.97,1901.19,2202.16
NE,Fremont Police Department,41.577008,-96.645853,NB0270100,Fremont,27245,3179,11.67,21,155,77.08,568.91,645.99
NE,Hastings Police Department,40.520632,-98.500044,NB0010100,Hastings,25247,3580,14.18,74,656,293.1,2598.33,2891.43
NE,Norfolk Police Department,41.909929,-97.606856,NB0600100,Norfolk,24964,3114,12.47,26,217,104.15,869.25,973.4
NE,Columbus Police Department,41.576866,-97.513467,NB0710100,Columbus,23954,1865,7.79,26,337,108.54,1406.86,1515.4
NE,Papillion Police Department,41.115064,-96.109125,NB0770200,Papillion,23875,1129,4.73,12,295,50.26,1235.6,1285.86
NE,North Platte Police Department,41.050322,-100.744481,NB0560100,North Platte,23543,3080,13.08,32,548,135.92,2327.66,2463.58
NE,La Vista Police Department,41.115064,-96.109125,NB0770400,La Vista,16786,1017,6.06,10,248,59.57,1477.42,1537.0
NE,Scottsbluff Police Department,41.851589,-103.70586,NB0790100,Scottsbluff,14511,2170,14.95,36,684,248.09,4713.67,4961.75
NE,South Sioux City Police Department,42.390456,-96.562549,NB0220100,South Sioux City,13796,1573,11.4,28,350,202.96,2536.97,2739.92
NE,Beatrice Police Department,40.255234,-96.683453,NB0340100,Beatrice,12276,2491,20.29,16,115,130.34,936.79,1067.12
NE,Lexington Police Department,40.867378,-99.815154,NB0240300,Lexington,10325,1567,15.18,9,165,87.17,1598.06,1685.23
NE,Gering Police Department,41.851589,-103.70586,NB0790200,Gering,8521,688,8.07,1,21,11.74,246.45,258.19
NE,Alliance Police Department,42.215665,-103.087821,NB0070100,Alliance,8141,1084,13.32,26,93,319.37,1142.37,1461.74
NE,York Police Department,40.873056,-97.596742,NB0930100,York,8091,665,8.22,9,110,111.23,1359.54,1470.77
NE,Blair Police Department,41.533973,-96.224577,NB0890100,Blair,7725,976,12.63,11,60,142.39,776.7,919.09
NE,Seward Police Department,40.871944,-97.140383,NB0800100,Seward,7651,521,6.81,3,59,39.21,771.14,810.35
NE,McCook Police Department,40.16942,-100.468576,NB0730100,McCook,7425,825,11.11,8,99,107.74,1333.33,1441.08
NE,Crete Police Department,40.516802,-97.131755,NB0760200,Crete,7224,1347,18.65,27,165,373.75,2284.05,2657.81
NE,Nebraska City Police Department,40.637992,-96.131027,NB0660100,Nebraska City,7206,1334,18.51,9,107,124.9,1484.87,1609.77
NE,Plattsmouth Police Department,40.909878,-96.140609,NB0130100,Plattsmouth,6558,565,8.62,4,61,60.99,930.16,991.16
NH,Chester Police Department,42.9603,-71.26257,NH0081000,Chester,114730,14064,12.26,0,15,0.0,13.07,13.07
NH,Manchester Police Department,42.989944,-71.46063,NH0063400,Manchester,114730,14064,12.26,441,1942,384.38,1692.67,2077.05
NH,Nashua Police Department,42.911643,-71.723101,NH0064600,Nashua,90659,7112,7.84,111,928,122.44,1023.62,1146.05
NH,Concord Police Department,43.205547,-71.53967,NH0071600,Concord,43552,3834,8.8,70,635,160.73,1458.03,1618.75
NH,Dover Police Department,43.19398,-70.87545,NH0090400,Dover,32599,2536,7.78,15,317,46.01,972.42,1018.44
NH,Rochester Police Department,43.293172,-71.035889,NH0092000,Rochester,32317,2958,9.15,35,340,108.3,1052.08,1160.38
NH,Derry Police Department,42.892834,-71.32795,NH0081600,Derry,23571,1934,8.2,35,261,148.49,1107.29,1255.78
NH,Londonderry Police Department,42.860878,-71.37196,NH0083800,Londonderry,23571,1934,8.2,18,153,76.37,649.1,725.47
NH,Keene Police Department,42.92329,-72.26388,NH0031800,Keene,22969,2320,10.1,37,546,161.09,2377.12,2538.2
NH,Portsmouth Police Department,43.061455,-70.76706,NH0085800,Portsmouth,21897,1293,5.9,33,240,150.71,1096.04,1246.75
NH,Laconia Police Department,43.519109,-71.425366,NH0011400,Laconia,16786,1688,10.06,39,431,232.34,2567.62,2799.95
NH,Lebanon Police Department,43.632645,-72.289085,NH0054400,Lebanon,14316,1103,7.7,13,211,90.81,1473.88,1564.68
NH,Claremont Police Department,43.372253,-72.33752,NH0100600,Claremont,12955,2143,16.54,0,0,0.0,0.0,0.0
NH,Somersworth Police Department,43.293172,-71.035889,NH0092400,Somersworth,11964,1286,10.75,13,221,108.66,1847.21,1955.87
NH,Durham Police Department,43.293172,-71.035889,NH0090600,Durham,11616,877,7.55,7,29,60.26,249.66,309.92
NH,New Durham Police Department,43.293172,-71.035889,NH0091800,New Durham,11616,877,7.55,1,20,8.61,172.18,180.79
NH,Exeter Police Department,42.988842,-71.098746,NH0082200,Exeter,9908,660,6.66,8,101,80.74,1019.38,1100.12
NH,New Hampton Police Department,43.519109,-71.425366,NH0011800,New Hampton,9900,295,2.98,1,4,10.1,40.4,50.51
NH,South Hampton Police Department,42.988842,-71.098746,NH0087000,South Hampton,9900,295,2.98,0,0,0.0,0.0,0.0
NH,Hampton Police Department,42.988842,-71.098746,NH0083000,Hampton,9900,295,2.98,16,100,161.62,1010.1,1171.72
NH,Hampton Falls Police Department,42.988842,-71.098746,NH0083200,Hampton Falls,9900,295,2.98,0,17,0.0,171.72,171.72
NH,North Hampton Police Department,42.973667,-70.83402,NH0085000,North Hampton,9900,295,2.98,2,12,20.2,121.21,141.41
NH,Berlin Police Department,44.469833,-71.18588,NH0040600,Berlin,9710,1119,11.52,13,91,133.88,937.18,1071.06
NH,Hanover Police Department,43.718887,-72.27353,NH0053400,Hanover,8813,490,5.56,3,68,34.04,771.59,805.63
NH,Franklin Police Department,43.299485,-71.68013,NH0072400,Franklin,8766,413,4.71,10,63,114.08,718.69,832.76
NJ,Jersey City Police Department,40.720917,-74.04438,NJ0090600,Jersey City,287146,45883,15.98,811,4101,282.43,1428.19,1710.63
NJ,Paterson Police Department,40.91896,-74.170715,NJ0160800,Paterson,157927,39223,24.84,1411,3826,893.45,2422.64,3316.09
NJ,Elizabeth Police Department,40.659871,-74.308696,NJ0200400,Elizabeth,135772,19722,14.53,747,3986,550.19,2935.8,3485.99
NJ,Toms River Township Police Department,39.986946,-74.181694,NJ0150700,Toms River Township,91798,6773,7.38,110,1250,119.83,1361.69,1481.51
NJ,Trenton Police Department,40.227024,-74.75254,NJ0111100,Trenton,90097,24202,26.86,931,1678,1033.33,1862.44,2895.77
NJ,Clifton Police Department,40.86561,-74.160416,NJ0160200,Clifton,89460,7772,8.69,108,1385,120.72,1548.18,1668.9
NJ,Bayonne Police Department,40.731384,-74.078627,NJ0090100,Bayonne,70553,7844,11.12,183,1008,259.38,1428.71,1688.09
NJ,Passaic Police Department,41.033763,-74.300307,NJ0160700,Passaic,70308,17733,25.22,432,1522,614.44,2164.76,2779.2
NJ,East Orange Police Department,40.76055,-74.209236,NJ0070600,East Orange,68918,12169,17.66,330,1359,478.83,1971.91,2450.74
NJ,Orange Police Department,40.771152,-74.224846,NJ0071700,Orange,68918,12169,17.66,127,463,184.28,671.81,856.09
NJ,Lakewood Township Police Department,40.093304,-74.21318,NJ0151400,Lakewood Township,66752,18014,26.99,223,931,334.07,1394.71,1728.79
NJ,Hoboken Police Department,40.73738,-74.029785,NJ0090500,Hoboken,59369,3952,6.66,85,822,143.17,1384.56,1527.73
NJ,New Brunswick Police Department,40.494114,-74.44651,NJ0121400,New Brunswick,55671,16540,29.71,528,1675,948.43,3008.75,3957.18
NJ,Perth Amboy Police Department,40.51528,-74.27578,NJ0121600,Perth Amboy,55046,11340,20.6,204,908,370.6,1649.53,2020.13
NJ,West New York Police Department,40.788315,-74.015236,NJ0091200,West New York,52485,10387,19.79,124,671,236.26,1278.46,1514.72
NJ,Hackensack Police Department,40.885597,-74.043846,NJ0022300,Hackensack,45723,5564,12.17,113,1084,247.14,2370.8,2617.94
NJ,Sayreville Police Department,40.476875,-74.30209,NJ0121900,Sayreville,45062,2374,5.27,37,566,82.11,1256.05,1338.16
NJ,Linden Police Department,40.659871,-74.308696,NJ0200900,Linden,43387,3308,7.62,187,1562,431.0,3600.16,4031.16
NJ,Kearny Police Department,40.772007,-74.13843,NJ0090700,Kearny,41790,4034,9.65,64,1007,153.15,2409.67,2562.81
NJ,Fort Lee Police Department,40.84407,-73.98105,NJ0021900,Fort Lee,39701,3713,9.35,42,555,105.79,1397.95,1503.74
NJ,Atlantic City Police Department,39.35547,-74.44455,NJ0010200,Atlantic City,38481,14007,36.4,727,2626,1889.24,6824.15,8713.39
NJ,Fair Lawn Police Department,40.935867,-74.13274,NJ0021700,Fair Lawn,34820,2027,5.82,27,317,77.54,910.4,987.94
NJ,Garfield Police Department,40.878628,-74.102425,NJ0022100,Garfield,32481,4761,14.66,39,529,120.07,1628.64,1748.71
NJ,Long Branch Police Department,40.303596,-73.99368,NJ0132500,Long Branch,31734,6708,21.14,79,440,248.94,1386.53,1635.47
NJ,Westfield Police Department,40.654408,-74.34541,NJ0202000,Westfield,30950,619,2.0,5,264,16.16,852.99,869.14
NM,Albuquerque Police Department,35.089184,-106.65081,NM0010100,Albuquerque,562336,90345,16.07,7372,26365,1310.96,4688.48,5999.44
NM,Las Cruces Police Department,32.316395,-106.77963,NM0070100,Las Cruces,109934,23689,21.55,666,6220,605.82,5657.94,6263.76
NM,Rio Rancho Police Department,35.268604,-106.634796,NM0230600,Rio Rancho,102403,7195,7.03,453,1652,442.37,1613.23,2055.6
NM,Roswell Police Department,33.361604,-104.469837,NM0030100,Roswell,48347,10793,22.32,430,1381,889.4,2856.43,3745.84
NM,Farmington Police Department,36.73906,-108.215805,NM0240200,Farmington,46696,9006,19.29,491,1182,1051.48,2531.27,3582.75
NM,Hobbs Police Department,32.702976,-103.13619,NM0130200,Hobbs,39476,6765,17.14,347,1970,879.02,4990.37,5869.39
NM,Clovis Police Department,34.572984,-103.346055,NM0050100,Clovis,38505,7822,20.31,208,873,540.19,2267.24,2807.43
NM,Carlsbad Police Department,32.457858,-104.306471,NM0080200,Carlsbad,31525,4807,15.25,176,821,558.29,2604.28,3162.57
NM,Gallup Police Department,35.526714,-108.74098,NM0170100,Gallup,21901,6050,27.62,279,831,1273.91,3794.35,5068.26
NM,Los Lunas Police Department,34.71684,-106.806582,NM0320300,Los Lunas,17072,1735,10.16,115,592,673.62,3467.67,4141.28
NM,Sunland Park Police Department,31.795942,-106.555046,NM0070600,Sunland Park,16488,4788,29.04,73,134,442.75,812.71,1255.46
NM,Deming Police Department,32.269485,-107.75179,NM0160100,Deming,14730,4006,27.2,0,0,0.0,0.0,0.0
NM,Las Vegas Police Department,35.591564,-105.22732,NM0250100,Las Vegas,13247,3669,27.7,139,292,1049.29,2204.27,3253.57
NM,Artesia Police Department,32.457858,-104.306471,NM0080100,Artesia,12637,2354,18.63,26,344,205.75,2722.17,2927.91
NM,Portales Police Department,34.197777,-103.334984,NM0220100,Portales,12151,2598,21.38,83,229,683.07,1884.62,2567.69
NM,Lovington Police Department,32.946884,-103.3474,NM0130400,Lovington,11505,2391,20.78,0,0,0.0,0.0,0.0
NM,Grants Police Department,34.93205,-108.000255,NM0330100,Grants,9208,2617,28.42,7,6,76.02,65.16,141.18
NM,Bernalillo Police Department,35.685071,-106.882619,NM0230100,Bernalillo,9049,1357,15.0,0,0,0.0,0.0,0.0
NM,Anthony Police Department,32.350912,-106.832182,NM0070200,Anthony,8748,3334,38.11,18,41,205.76,468.68,674.44
NM,Socorro Police Department,33.991614,-106.939003,NM0280100,Socorro,8553,2024,23.66,0,0,0.0,0.0,0.0
NM,Corrales Police Department,35.22278,-106.616104,NM0230300,Corrales,8488,249,2.93,10,33,117.81,388.78,506.6
NM,Ruidoso Police Department,33.352177,-105.67355,NM0140100,Ruidoso,7636,719,9.42,0,0,0.0,0.0,0.0
NM,Bloomfield Police Department,36.71903,-107.97912,NM0240300,Bloomfield,7514,1682,22.38,46,112,612.19,1490.55,2102.74
NM,Belen Police Department,34.660484,-106.774734,NM0320100,Belen,7374,1499,20.33,100,265,1356.12,3593.71,4949.82
NM,Aztec Police Department,36.822765,-107.9963,NM0240100,Aztec,6283,1809,28.79,44,70,700.3,1114.12,1814.42
NV,Henderson Police Department,36.03084,-114.98376,NV0020300,Henderson,311250,23697,7.61,991,6974,318.39,2240.64,2559.04
NV,Reno Police Department,40.703311,-119.710315,NV0160100,Reno,259913,32051,12.33,1656,7352,637.14,2828.64,3465.78
NV,North Las Vegas Police Department,36.214236,-115.013819,NV0020200,North Las Vegas,259638,32931,12.68,763,6063,293.87,2335.17,2629.05
NV,Sparks Police Department,39.53786,-119.76551,NV0160200,Sparks,106900,9395,8.79,429,2494,401.31,2333.02,2734.33
NV,Elko Police Department,40.841106,-115.75706,NV0040100,Elko,20391,2454,12.03,110,359,539.45,1760.58,2300.03
NV,Mesquite Police Department,36.804005,-114.06781,NV0020900,Mesquite,20019,1626,8.12,43,272,214.8,1358.71,1573.51
NV,Boulder City Police Department,35.978218,-114.83407,NV0020400,Boulder City,14868,1657,11.14,26,134,174.87,901.26,1076.14
NV,Fallon Police Department,39.4748,-118.77769,NV0010100,Fallon,9068,1050,11.58,13,133,143.36,1466.7,1610.06
NV,Winnemucca Police Department,41.407914,-118.127591,NV0070100,Winnemucca,8325,1120,13.45,55,171,660.66,2054.05,2714.71
NV,West Wendover Police Department,41.141133,-115.351424,NV0040500,West Wendover,4517,647,14.32,23,68,509.19,1505.42,2014.61
NV,Yerington Police Department,38.995132,-119.16177,NV0100100,Yerington,3093,632,20.43,0,0,0.0,0.0,0.0
NV,Carlin Police Department,41.141133,-115.351424,NV0040200,Carlin,2279,155,6.8,4,19,175.52,833.7,1009.21
NV,Lovelock Police Department,40.439639,-118.409477,NV0140100,Lovelock,1747,299,17.12,5,18,286.2,1030.34,1316.54
NY,Buffalo Police Department,42.965775,-78.74092,NY0140100,Buffalo,276011,73730,26.71,2083,11649,754.68,4220.48,4975.16
NY,Yonkers Police Department,40.92953,-73.89687,NY0590700,Yonkers,209730,27378,13.05,715,2613,340.91,1245.89,1586.8
NY,Albany Police Department,42.588272,-73.974015,NY0010100,Albany,99402,19541,19.66,1008,3535,1014.06,3556.27,4570.33
NY,Cheektowaga Town Police Department,42.903458,-78.75433,NY0145500,Cheektowaga Town,76497,7193,9.4,209,2944,273.21,3848.52,4121.73
NY,Mount Vernon Police Department,40.912704,-73.8375,NY0590300,Mount Vernon,72855,9132,12.53,367,1157,503.74,1588.09,2091.83
NY,Schenectady Police Department,42.814327,-73.93844,NY0460100,Schenectady,66809,13505,20.21,489,2196,731.94,3286.98,4018.92
NY,Utica Police Department,43.104015,-75.23255,NY0320200,Utica,64723,17492,27.03,299,1904,461.97,2941.77,3403.74
NY,White Plains Police Department,41.029545,-73.771935,NY0590200,White Plains,59452,4955,8.33,87,1019,146.34,1713.99,1860.32
NY,Hempstead Village Police Department,40.70976,-73.62349,NY0290600,Hempstead Village,58532,9913,16.94,302,620,515.96,1059.25,1575.21
NY,Tonawanda Town Police Department,42.98086,-78.86628,NY0147200,Tonawanda Town,57401,5169,9.01,80,753,139.37,1311.82,1451.19
NY,Irondequoit Town Police Department,43.21119,-77.581154,NY0270200,Irondequoit Town,51054,4245,8.31,77,1060,150.82,2076.23,2227.05
NY,Troy Police Department,42.729664,-73.68714,NY0410200,Troy,50717,10759,21.21,287,1510,565.89,2977.31,3543.19
NY,Niagara Falls Police Department,43.456731,-78.792142,NY0310200,Niagara Falls,48763,11514,23.61,324,1334,664.44,2735.68,3400.12
NY,Binghamton Police Department,42.097076,-75.911995,NY0030100,Binghamton,47828,14894,31.14,313,1668,654.43,3487.5,4141.93
NY,West Seneca Town Police Department,42.832394,-78.753716,NY0147400,West Seneca Town,45390,3010,6.63,63,645,138.8,1421.02,1559.81
NY,Freeport Village Police Department,40.65861,-73.58728,NY0290400,Freeport Village,44328,3017,6.81,67,443,151.15,999.37,1150.51
NY,Brighton Town Police Department,43.126137,-77.574745,NY0275000,Brighton Town,36986,2978,8.05,34,932,91.93,2519.87,2611.8
NY,Long Beach Police Department,40.589405,-73.665955,NY0290200,Long Beach,34820,1705,4.9,23,45,66.05,129.24,195.29
NY,New York Mills Village Police Department,43.242727,-75.434282,NY0324000,New York Mills Village,34118,1250,3.66,6,40,17.59,117.24,134.83
NY,New Hartford Town and Village Police Department,43.05529,-75.27844,NY0324100,New Hartford Town and Village,34118,1250,3.66,11,651,32.24,1908.08,1940.32
NY,New Windsor Town Police Department,41.48312,-74.0622,NY0356700,New Windsor Town,34118,1250,3.66,43,350,126.03,1025.85,1151.88
NY,Newburgh Town Police Department,41.531647,-74.06472,NY0356300,Newburgh Town,34118,1250,3.66,27,760,79.14,2227.56,2306.7
NY,New Paltz Town and Village Police Department,41.947216,-74.265458,NY0552700,New Paltz Town and Village,34118,1250,3.66,15,140,43.97,410.34,454.31
NY,New Berlin Town Police Department,42.622704,-75.33214,NY0082800,New Berlin Town,34118,1250,3.66,0,4,0.0,11.72,11.72
NY,New Rochelle Police Department,41.15277,-73.745912,NY0590400,New Rochelle,34118,1250,3.66,137,1133,401.55,3320.83,3722.38
OH,Columbus Police Department,39.9643,-83.0046,OHCOP0000,Columbus,898143,160570,17.88,3501,24594,389.8,2738.32,3128.12
OH,Cleveland Police Department,41.53992,-81.62757,OHCLP0000,Cleveland,374861,114442,30.53,6100,17411,1627.27,4644.65,6271.92
OH,Cincinnati Police Department,39.103947,-84.518715,OHCIP0000,Cincinnati,308664,73391,23.78,2258,13087,731.54,4239.89,4971.43
OH,Toledo Police Department,41.65603,-83.535126,OH0480700,Toledo,271454,64598,23.8,3026,8026,1114.74,2956.67,4071.41
OH,Akron Police Department,41.07928,-81.518654,OH0770100,Akron,191483,42844,22.37,1474,5679,769.78,2965.8,3735.58
OH,Dayton Police Department,39.758675,-84.197075,OH0570200,Dayton,138416,35824,25.88,1494,6399,1079.35,4623.02,5702.38
OH,Parma Police Department,41.382565,-81.72852,OH0184200,Parma,80880,7872,9.73,99,523,122.4,646.64,769.04
OH,Canton Police Department,40.79727,-81.37636,OH0760400,Canton,71097,20790,29.24,695,2952,977.54,4152.07,5129.61
OH,Hamilton Police Department,39.39787,-84.56464,OH0090200,Hamilton,63127,10060,15.94,181,1214,286.72,1923.11,2209.83
OH,Youngstown Police Department,41.099815,-80.65149,OH0500900,Youngstown,61274,20239,33.03,398,1883,649.54,3073.08,3722.62
OH,Kettering Police Department,39.69592,-84.16295,OH0570500,Kettering,57503,5051,8.78,32,816,55.65,1419.06,1474.71
OH,Elyria Police Department,41.369877,-82.11018,OH0470400,Elyria,52853,10588,20.03,108,774,204.34,1464.44,1668.78
OH,Cuyahoga Falls Police Department,41.138668,-81.48351,OH0770300,Cuyahoga Falls,50906,4767,9.36,104,944,204.3,1854.4,2058.7
OH,Lakewood Police Department,41.484337,-81.776634,OH0182600,Lakewood,50841,6321,12.43,72,777,141.62,1528.29,1669.91
OH,Middletown Police Department,39.51933,-84.400795,OH0090300,Middletown,50114,10068,20.09,99,1163,197.55,2320.71,2518.26
OH,Newark Police Department,40.093609,-82.481251,OH0450100,Newark,49703,8137,16.37,143,1312,287.71,2639.68,2927.39
OH,Euclid Police Department,41.600502,-81.52682,OH0181800,Euclid,49382,10066,20.38,90,625,182.25,1265.64,1447.9
OH,Dublin Police Department,40.101982,-83.14079,OH0250300,Dublin,48613,908,1.87,33,539,67.88,1108.76,1176.64
OH,Mansfield Police Department,40.759254,-82.51401,OH0700100,Mansfield,47437,10425,21.98,176,1475,371.02,3109.39,3480.41
OH,Mentor Police Department,41.924116,-81.392643,OH0430600,Mentor,47369,2200,4.64,64,673,135.11,1420.76,1555.87
OH,Beavercreek Police Department,39.729694,-84.068794,OH0291100,Beavercreek,46320,3283,7.09,31,978,66.93,2111.4,2178.32
OH,Strongsville Police Department,41.31448,-81.83247,OH0185100,Strongsville,46187,2068,4.48,42,416,90.93,900.69,991.62
OH,Cleveland Heights Police Department,41.51443,-81.55112,OH0181500,Cleveland Heights,45267,7287,16.1,85,510,187.77,1126.65,1314.42
OH,Huber Heights Police Department,39.862236,-84.12629,OH0571400,Huber Heights,42650,3348,7.85,85,813,199.3,1906.21,2105.51
OH,Grove City Police Department,39.969575,-83.006863,OH0250600,Grove City,41025,2013,4.91,86,1061,209.63,2586.23,2795.86
OK,Oklahoma City Police Department,35.468613,-97.524315,OK0550600,Oklahoma City,673183,98848,14.68,4470,20683,664.01,3072.42,3736.43
OK,Tulsa Police Department,36.149185,-95.99595,OK0720500,Tulsa,410652,72724,17.71,3752,16229,913.67,3952.01,4865.68
OK,Norman Police Department,35.221004,-97.44601,OK0140200,Norman,125745,19764,15.72,402,2976,319.69,2366.69,2686.39
OK,Broken Arrow Police Department,36.03047,-95.78848,OK0720100,Broken Arrow,112751,9072,8.05,249,1627,220.84,1443.0,1663.84
OK,Edmond Police Department,35.654186,-97.480965,OK0550300,Edmond,93522,9701,10.37,159,1534,170.01,1640.26,1810.27
OK,Lawton Police Department,34.60796,-98.39359,OK0160100,Lawton,91247,15871,17.39,710,2299,778.11,2519.53,3297.64
OK,Moore Police Department,35.338253,-97.486305,OK0140100,Moore,62633,6363,10.16,163,1086,260.25,1733.91,1994.16
OK,Midwest City Police Department,35.46556,-97.388535,OK0550400,Midwest City,58146,8759,15.06,217,1405,373.2,2416.33,2789.53
OK,Enid Police Department,36.378273,-97.787729,OK0240100,Enid,51129,7388,14.45,232,1430,453.75,2796.85,3250.6
OK,Stillwater Police Department,36.079225,-96.975255,OK0600200,Stillwater,48055,12733,26.5,100,811,208.09,1687.65,1895.74
