State,Agency Name,Latitude,Longitude,ORI,City,Population,Poverty,Poverty Rate
AK,Nome Police Department,64.783686,-164.188912,AK0010600,Nome,3685.0,249.0,6.76
AK,Sitka Police Department,57.052124,-135.33418,AK0010900,Sitka,8518.0,573.0,6.73
AK,Bethel Police Department,60.928916,-160.15335,AK0011300,Bethel,6273.0,803.0,12.8
AK,Haines Police Department,59.098771,-135.576936,AK0012100,Haines,1571.0,92.0,5.86
AK,Juneau Police Department,58.356556,-134.50731,AK0010300,Juneau,32240.0,2293.0,7.11
AK,Skagway Police Department,59.575097,-135.335418,AK0011000,Skagway,1217.0,64.0,5.26
AK,Wrangell Police Department,56.279121,-132.040325,AK0011100,Wrangell,2162.0,258.0,11.93
AK,Anchorage Police Department,61.17425,-149.284329,AK0010100,Anchorage,292545.0,26182.0,8.95
AK,Dillingham Police Department,59.824816,-158.602233,AK0013000,Dillingham,2133.0,232.0,10.88
AK,Petersburg Police Department,55.415683,-132.875734,AK0010700,Petersburg,3259.0,150.0,4.6
AK,Hoonah Police Department,58.076434,-135.1851,AK0013100,Hoonah,913.0,75.0,8.21
AK,Kodiak Police Department,57.8049,-152.37332,AK0010500,Kodiak,5682.0,505.0,8.89
AK,Sand Point Police Department,55.245044,-161.997477,AK0015200,Sand Point,1164.0,122.0,10.48
AK,Unalaska Police Department,51.959447,178.338813,AK0013300,Unalaska,4339.0,280.0,6.45
AK,St. Paul Police Department,51.959447,178.338813,AK0015000,St. Paul,351.0,92.0,26.21
AK,Cordova Police Department,61.34984,-145.023141,AK0011400,Cordova,2588.0,42.0,1.62
AK,Valdez Police Department,61.34984,-145.023141,AK0011200,Valdez,3966.0,173.0,4.36
AK,Whittier Police Department,61.34984,-145.023141,AK0012800,Whittier,316.0,54.0,17.09
AK,Seldovia Police Department,60.366668,-152.322283,AK0011900,Seldovia,171.0,0.0,
AK,Seward Police Department,60.366668,-152.322283,AK0010800,Seward,2614.0,219.0,8.38
AK,Soldotna Police Department,60.481678,-151.07265,AK0012000,Soldotna,4370.0,823.0,18.83
AK,Homer Police Department,59.64873,-151.52992,AK0012200,Homer,5531.0,695.0,12.57
AK,Kenai Police Department,60.559402,-151.2507,AK0012300,Kenai,7452.0,1042.0,13.98
AK,Kotzebue Police Department,67.005066,-160.021086,AK0011600,Kotzebue,3199.0,465.0,14.54
AK,Ketchikan Police Department,55.449938,-131.106685,AK0010400,Ketchikan,8150.0,981.0,12.04
AK,Wasilla Police Department,62.182174,-149.407974,AK0015600,Wasilla,9098.0,1364.0,14.99
AK,Palmer Police Department,61.602676,-149.11183,AK0011700,Palmer,5978.0,674.0,11.27
AK,North Pole Police Department,64.75503,-147.35081,AK0013200,North Pole,2825.0,147.0,5.2
AK,Fairbanks Police Department,64.83945,-147.71942,AK0010200,Fairbanks,33018.0,2769.0,8.39
AK,Craig Police Department,55.415683,-132.875734,AK0014500,Craig,1102.0,130.0,11.8
AK,Klawock Police Department,55.415683,-132.875734,AK0013500,Klawock,805.0,182.0,22.61
AL,Opelika Police Department,32.604064,-85.353048,AL0430200,Opelika,30810.0,5235.0,16.99
AL,Auburn Police Department,32.608086,-85.475136,AL0430100,Auburn,74637.0,17439.0,23.37
AL,Centreville Police Department,33.015893,-87.127148,AL0070100,Centreville,2789.0,225.0,8.07
AL,West Blocton Police Department,33.015893,-87.127148,AL0070300,West Blocton,1361.0,284.0,20.87
AL,Brent Police Department,33.015893,-87.127148,AL0070200,Brent,3214.0,913.0,28.41
AL,Lineville Police Department,33.267809,-85.862051,AL0170200,Lineville,2598.0,587.0,22.59
AL,Ashland Police Department,33.267809,-85.862051,AL0170100,Ashland,1741.0,660.0,37.91
AL,Clayhatchee Police Department,31.23572,-85.72021,AL0260900,Clayhatchee,637.0,161.0,25.27
AL,Ozark Police Department,31.430654,-85.609476,AL0260100,Ozark,14396.0,2776.0,19.28
AL,Daleville Police Department,31.430654,-85.609476,AL0260200,Daleville,4912.0,731.0,14.88
AL,Level Plains Police Department,31.430654,-85.609476,AL0260300,Level Plains,1826.0,127.0,6.96
AL,Napier Field Police Department,31.314436,-85.453896,AL0260400,Napier Field,405.0,48.0,11.85
AL,Newton Police Department,31.430654,-85.609476,AL0260500,Newton,1606.0,245.0,15.26
AL,Pinckard Police Department,31.430654,-85.609476,AL0260700,Pinckard,666.0,110.0,16.52
AL,Greensboro Police Department,32.7041,-87.59217,AL0360100,Greensboro,2484.0,673.0,27.09
AL,Troy Police Department,31.798651,-85.941604,AL0550100,Troy,17765.0,4380.0,24.66
AL,Brundidge Police Department,31.72041,-85.81567,AL0550200,Brundidge,2293.0,615.0,26.82
AL,Rockford Police Department,32.931445,-86.243482,AL0220200,Rockford,986.0,215.0,21.81
AL,Goodwater Police Department,32.931445,-86.243482,AL0220100,Goodwater,1172.0,308.0,26.28
AL,Newville Police Department,31.516978,-85.239971,AL0370300,Newville,390.0,95.0,24.36
AL,Abbeville Police Department,31.516978,-85.239971,AL0370100,Abbeville,2231.0,423.0,18.96
AL,Headland Police Department,31.35161,-85.34198,AL0370200,Headland,4941.0,324.0,6.56
AL,Sulligent Police Department,33.787085,-88.087431,AL0400100,Sulligent,1611.0,368.0,22.84
AL,Millport Police Department,33.787085,-88.087431,AL0400400,Millport,1181.0,194.0,16.43
AL,Vernon Police Department,33.787085,-88.087431,AL0400200,Vernon,1567.0,420.0,26.8
AL,Shorter Police Department,32.387027,-85.692887,AL0460600,Shorter,306.0,60.0,19.61
AL,Tuskegee Police Department,32.436695,-85.69221,AL0460100,Tuskegee,9125.0,1987.0,21.78
AL,Marion Police Department,32.639005,-87.293827,AL0530100,Marion,3273.0,536.0,16.38
AL,Uniontown Police Department,32.639005,-87.293827,AL0530200,Uniontown,2045.0,1245.0,60.88
AL,Oneonta Police Department,33.943935,-86.47508,AL0080100,Oneonta,6778.0,1052.0,15.52
AL,Blountsville Police Department,33.977448,-86.567246,AL0080200,Blountsville,1887.0,373.0,19.77
AL,Cleveland Police Department,33.977448,-86.567246,AL0080300,Cleveland,1291.0,53.0,4.11
AL,Snead Police Department,33.977448,-86.567246,AL0080400,Snead,1211.0,159.0,13.13
AL,Highland Lake Police Department,33.885117,-86.41327,AL0080500,Highland Lake,413.0,35.0,8.47
AL,Georgiana Police Department,31.751667,-86.681969,AL0100200,Georgiana,1374.0,303.0,22.05
AL,Greenville Police Department,31.751667,-86.681969,AL0100100,Greenville,7395.0,1562.0,21.12
AL,Fulton Police Department,31.685521,-87.818624,AL0160400,Fulton,446.0,31.0,6.95
AL,Jackson Police Department,31.685521,-87.818624,AL0160100,Jackson,4774.0,1048.0,21.95
AL,Thomasville Police Department,31.685521,-87.818624,AL0160200,Thomasville,3653.0,325.0,8.9
AL,Grove Hill Police Department,31.685521,-87.818624,AL0160300,Grove Hill,2069.0,254.0,12.28
AL,Coffeeville Police Department,31.685521,-87.818624,AL0160600,Coffeeville,240.0,64.0,26.67
AL,Elba Police Department,31.402258,-85.989602,AL0190100,Elba,3449.0,422.0,12.24
AL,New Brockton Police Department,31.402258,-85.989602,AL0190300,New Brockton,1210.0,240.0,19.83
AL,Kinston Police Department,31.402258,-85.989602,AL0190400,Kinston,793.0,209.0,26.36
AL,Selma Police Department,32.33354,-87.114356,AL0270100,Selma,18429.0,5275.0,28.62
AL,Fyffe Police Department,34.460929,-85.803992,AL0281100,Fyffe,1327.0,174.0,13.11
AL,Crossville Police Department,34.460929,-85.803992,AL0281000,Crossville,1920.0,484.0,25.21
AL,Hammondville Police Department,34.57885,-85.62933,AL0280800,Hammondville,393.0,47.0,11.96
AL,Rainsville Police Department,34.460929,-85.803992,AL0280700,Rainsville,5466.0,1055.0,19.3
AL,Mentone Police Department,34.460929,-85.803992,AL0280600,Mentone,340.0,70.0,20.59
AL,Powell Police Department,34.460929,-85.803992,AL0280500,Powell,1029.0,253.0,24.59
AL,Henagar Police Department,34.460929,-85.803992,AL0280400,Henagar,2436.0,358.0,14.7
AL,Geraldine Police Department,34.460929,-85.803992,AL0280300,Geraldine,1266.0,192.0,15.17
AL,Fort Payne Police Department,34.440315,-85.72332,AL0280100,Fort Payne,14730.0,3200.0,21.72
AL,Ider Police Department,34.460929,-85.803992,AL0281400,Ider,604.0,143.0,23.68
AL,Valley Head Police Department,34.460929,-85.803992,AL0281300,Valley Head,833.0,83.0,9.96
AL,Sylvania Police Department,34.460929,-85.803992,AL0281200,Sylvania,1848.0,200.0,10.82
AL,Wetumpka Police Department,32.597229,-86.142738,AL0290100,Wetumpka,7025.0,726.0,10.33
AL,Coosada Police Department,32.597229,-86.142738,AL0290400,Coosada,1074.0,120.0,11.17
AL,Eclectic Police Department,32.597229,-86.142738,AL0290300,Eclectic,1274.0,302.0,23.7
AL,Rainbow City Police Department,33.951508,-86.044334,AL0310500,Rainbow City,10093.0,1163.0,11.52
AL,Walnut Grove Police Department,34.047648,-86.034522,AL0311000,Walnut Grove,901.0,162.0,17.98
AL,Hokes Bluff Police Department,34.047648,-86.034522,AL0310600,Hokes Bluff,4402.0,101.0,2.29
AL,Gadsden Police Department,34.047648,-86.034522,AL0310200,Gadsden,34317.0,9110.0,26.55
AL,Attalla Police Department,34.022778,-86.08711,AL0310100,Attalla,5872.0,686.0,11.68
AL,Samson Police Department,31.092392,-85.821011,AL0340200,Samson,1567.0,548.0,34.97
AL,Hartford Police Department,31.092392,-85.821011,AL0340300,Hartford,2630.0,585.0,22.24
AL,Slocomb Police Department,31.092392,-85.821011,AL0340400,Slocomb,1816.0,729.0,40.14
AL,Geneva Police Department,31.092392,-85.821011,AL0340100,Geneva,4208.0,1179.0,28.02
AL,Eutaw Police Department,32.844497,-87.9642,AL0350100,Eutaw,2890.0,838.0,29.0
AL,Brilliant Police Department,34.138219,-87.881551,AL0490500,Brilliant,1173.0,468.0,39.9
AL,Hackleburg Police Department,34.138219,-87.881551,AL0490400,Hackleburg,1463.0,316.0,21.6
AL,Guin Police Department,34.138219,-87.881551,AL0490300,Guin,2490.0,403.0,16.18
AL,Hamilton Police Department,34.138219,-87.881551,AL0490100,Hamilton,6974.0,1147.0,16.45
AL,Bear Creek Police Department,34.138219,-87.881551,AL0490700,Bear Creek,1574.0,250.0,15.88
AL,Bayou La Batre Police Department,30.684572,-88.196568,AL0020600,Bayou La Batre,2520.0,881.0,34.96
AL,Satsuma Police Department,30.684572,-88.196568,AL0020700,Satsuma,6704.0,322.0,4.8
AL,Mount Vernon Police Department,30.684572,-88.196568,AL0020800,Mount Vernon,1567.0,420.0,26.8
AL,Creola Police Department,30.684572,-88.196568,AL0021200,Creola,2764.0,606.0,21.92
AL,Dauphin Island Police Department,30.684572,-88.196568,AL0021500,Dauphin Island,1771.0,63.0,3.56
AL,Mobile Police Department,30.673004,-88.09793,AL0020100,Mobile,187445.0,36496.0,19.47
AL,Prichard Police Department,30.730814,-88.0808,AL0020200,Prichard,19645.0,5735.0,29.19
AL,Chickasaw Police Department,30.684572,-88.196568,AL0020300,Chickasaw,6421.0,2186.0,34.04
AL,Citronelle Police Department,31.089754,-88.22756,AL0020400,Citronelle,3940.0,708.0,17.97
AL,Saraland Police Department,30.80567,-88.071266,AL0020500,Saraland,15942.0,1239.0,7.77
AL,Monroeville Police Department,31.580332,-87.383266,AL0510100,Monroeville,5953.0,1159.0,19.47
AL,Excel Police Department,31.580332,-87.383266,AL0510400,Excel,539.0,58.0,10.76
AL,Hartselle Police Department,34.442818,-86.940285,AL0520200,Hartselle,15308.0,1739.0,11.36
AL,Falkville Police Department,34.454484,-86.846402,AL0520400,Falkville,1347.0,145.0,10.76
AL,Somerville Police Department,34.454484,-86.846402,AL0520600,Somerville,616.0,124.0,20.13
AL,Priceville Police Department,34.5353,-86.90332,AL0520900,Priceville,3479.0,61.0,1.75
AL,Columbiana Police Department,33.177193,-86.60668,AL0590200,Columbiana,4197.0,299.0,7.12
AL,Montevallo Police Department,33.099293,-86.86463,AL0590300,Montevallo,6968.0,989.0,14.19
AL,Alabaster Police Department,33.24704,-86.81563,AL0590400,Alabaster,33133.0,2188.0,6.6
AL,Pelham Police Department,33.262937,-86.678104,AL0590600,Pelham,24134.0,991.0,4.11
AL,Harpersville Police Department,33.262937,-86.678104,AL0590900,Harpersville,1589.0,176.0,11.08
AL,Cuba Police Department,32.597481,-88.200057,AL0600300,Cuba,378.0,65.0,17.2
AL,Livingston Police Department,32.597481,-88.200057,AL0600200,Livingston,3227.0,1287.0,39.88
AL,York Police Department,32.597481,-88.200057,AL0600100,York,2371.0,584.0,24.63
AL,Parrish Police Department,33.791558,-87.301094,AL0640600,Parrish,1294.0,209.0,16.15
AL,Dora Police Department,33.738365,-87.08069,AL0640400,Dora,2725.0,303.0,11.12
AL,Cordova Police Department,33.791558,-87.301094,AL0640300,Cordova,1709.0,367.0,21.47
AL,Carbon Hill Police Department,33.791558,-87.301094,AL0640200,Carbon Hill,1522.0,381.0,25.03
AL,Jasper Police Department,33.835384,-87.27464,AL0640100,Jasper,14370.0,2225.0,15.48
AL,Camden Police Department,31.990372,-87.302216,AL0660100,Camden,2128.0,427.0,20.07
AL,Pine Hill Police Department,31.990372,-87.302216,AL0660200,Pine Hill,865.0,388.0,44.86
AL,Autaugaville Police Department,32.536382,-86.64449,AL0040200,Autaugaville,999.0,206.0,20.62
AL,Foley Police Department,30.659218,-87.746067,AL0050300,Foley,20170.0,1933.0,9.58
AL,Gulf Shores Police Department,30.659218,-87.746067,AL0050400,Gulf Shores,14712.0,1208.0,8.21
AL,Robertsdale Police Department,30.659218,-87.746067,AL0050500,Robertsdale,6603.0,674.0,10.21
AL,Loxley Police Department,30.659218,-87.746067,AL0050600,Loxley,3566.0,361.0,10.12
AL,Silverhill Police Department,30.659218,-87.746067,AL0050700,Silverhill,704.0,35.0,4.97
AL,Daphne Police Department,30.599625,-87.898056,AL0050800,Daphne,27088.0,2276.0,8.4
AL,Summerdale Police Department,30.659218,-87.746067,AL0050900,Summerdale,1512.0,109.0,7.21
AL,Elberta Police Department,30.659218,-87.746067,AL0051000,Elberta,2302.0,557.0,24.2
AL,Orange Beach Police Department,30.659218,-87.746067,AL0051200,Orange Beach,7847.0,368.0,4.69
AL,Spanish Fort Police Department,30.659218,-87.746067,AL0051300,Spanish Fort,9720.0,347.0,3.57
AL,Bay Minette Police Department,30.659218,-87.746067,AL0050100,Bay Minette,7824.0,1725.0,22.05
AL,Fairhope Police Department,30.659218,-87.746067,AL0050200,Fairhope,21825.0,1914.0,8.77
AL,Louisville Police Department,31.870253,-85.405104,AL0060400,Louisville,562.0,214.0,38.08
AL,Clio Police Department,31.870253,-85.405104,AL0060300,Clio,1195.0,478.0,40.0
AL,Clayton Police Department,31.870253,-85.405104,AL0060200,Clayton,2512.0,351.0,13.97
AL,Eufaula Police Department,31.870253,-85.405104,AL0060100,Eufaula,12753.0,3733.0,29.27
AL,Union Springs Police Department,32.13935,-85.716125,AL0090100,Union Springs,3389.0,2139.0,63.12
AL,Ohatchee Police Department,33.771706,-85.822513,AL0110700,Ohatchee,1161.0,166.0,14.3
AL,Anniston Police Department,33.771706,-85.822513,AL0110100,Anniston,21455.0,4727.0,22.03
AL,Jacksonville Police Department,33.813366,-85.76122,AL0110200,Jacksonville,13076.0,3053.0,23.35
AL,Piedmont Police Department,33.771706,-85.822513,AL0110300,Piedmont,4837.0,870.0,17.99
AL,Weaver Police Department,33.771706,-85.822513,AL0110400,Weaver,3364.0,462.0,13.73
AL,Clanton Police Department,32.854051,-86.726607,AL0140100,Clanton,8715.0,1180.0,13.54
AL,Thorsby Police Department,32.854051,-86.726607,AL0140400,Thorsby,2483.0,238.0,9.59
AL,Jemison Police Department,32.854051,-86.726607,AL0140300,Jemison,2631.0,255.0,9.69
AL,Maplesville Police Department,32.854051,-86.726607,AL0140200,Maplesville,673.0,93.0,13.82
AL,Butler Police Department,31.990997,-88.248908,AL0150100,Butler,2385.0,435.0,18.24
AL,Gilbertown Police Department,31.990997,-88.248908,AL0150200,Gilbertown,666.0,158.0,23.72
AL,Pennington Police Department,31.990997,-88.248908,AL0150300,Pennington,604.0,132.0,21.85
AL,Sheffield Police Department,34.703112,-87.801457,AL0200100,Sheffield,9305.0,2381.0,25.59
AL,Tuscumbia Police Department,34.703112,-87.801457,AL0200200,Tuscumbia,8977.0,2015.0,22.45
AL,Muscle Shoals Police Department,34.703112,-87.801457,AL0200300,Muscle Shoals,15969.0,856.0,5.36
AL,Cherokee Police Department,34.703112,-87.801457,AL0200400,Cherokee,911.0,304.0,33.37
AL,Littleville Police Department,34.59297,-87.67472,AL0200600,Littleville,873.0,144.0,16.49
AL,Leighton Police Department,34.703112,-87.801457,AL0200500,Leighton,687.0,178.0,25.91
AL,Castleberry Police Department,31.428292,-86.992029,AL0210200,Castleberry,401.0,81.0,20.2
AL,Evergreen Police Department,31.428292,-86.992029,AL0210100,Evergreen,3504.0,546.0,15.58
AL,Repton Police Department,31.428292,-86.992029,AL0210300,Repton,329.0,50.0,15.2
AL,Cullman Police Department,34.131923,-86.869267,AL0250100,Cullman,17892.0,1878.0,10.5
AL,Hanceville Police Department,34.131923,-86.869267,AL0250200,Hanceville,3174.0,753.0,23.72
AL,Berry Police Department,33.661625,-87.60143,AL0320200,Berry,994.0,193.0,19.42
AL,Fayette Police Department,33.716157,-87.764292,AL0320100,Fayette,4271.0,1152.0,26.97
AL,Columbia Police Department,31.158193,-85.296398,AL0380400,Columbia,876.0,119.0,13.58
AL,Webb Police Department,31.158193,-85.296398,AL0381000,Webb,1378.0,251.0,18.21
AL,Kinsey Police Department,31.298319,-85.344284,AL0380600,Kinsey,2364.0,362.0,15.31
AL,Cottonwood Police Department,31.158193,-85.296398,AL0380500,Cottonwood,1155.0,379.0,32.81
AL,Gordon Police Department,31.14179,-85.096176,AL0380300,Gordon,287.0,65.0,22.65
AL,Ashford Police Department,31.158193,-85.296398,AL0380200,Ashford,2476.0,357.0,14.42
AL,Bridgeport Police Department,34.764095,-85.979956,AL0390200,Bridgeport,2316.0,744.0,32.12
AL,Section Police Department,34.764095,-85.979956,AL0390700,Section,953.0,139.0,14.59
AL,Pisgah Police Department,34.764095,-85.979956,AL0390500,Pisgah,1134.0,284.0,25.04
AL,Woodville Police Department,34.764095,-85.979956,AL0390800,Woodville,1011.0,96.0,9.5
AL,Skyline Police Department,34.764095,-85.979956,AL0390900,Skyline,1078.0,194.0,18.0
AL,Stevenson Police Department,34.867935,-85.837616,AL0390300,Stevenson,2712.0,282.0,10.4
AL,Hollywood Police Department,34.764095,-85.979956,AL0390400,Hollywood,950.0,119.0,12.53
AL,Scottsboro Police Department,34.66247,-86.035,AL0390100,Scottsboro,15446.0,2831.0,18.33
AL,White Hall Police Department,32.147888,-86.650586,AL0450500,White Hall,603.0,185.0,30.68
AL,Fort Deposit Police Department,32.147888,-86.650586,AL0450100,Fort Deposit,1899.0,607.0,31.96
AL,Hayneville Police Department,32.147888,-86.650586,AL0450200,Hayneville,1027.0,228.0,22.2
AL,Gurley Police Department,34.764238,-86.55108,AL0470300,Gurley,601.0,70.0,11.65
AL,Triana Police Department,34.583607,-86.73393,AL0470600,Triana,2784.0,57.0,2.05
AL,New Hope Police Department,34.764238,-86.55108,AL0470400,New Hope,2869.0,300.0,10.46
AL,Faunsdale Police Department,32.247591,-87.791091,AL0480400,Faunsdale,106.0,12.0,11.32
AL,Demopolis Police Department,32.247591,-87.791091,AL0480100,Demopolis,7134.0,1513.0,21.21
AL,Linden Police Department,32.247591,-87.791091,AL0480200,Linden,1981.0,404.0,20.39
AL,Thomaston Police Department,32.247591,-87.791091,AL0480300,Thomaston,469.0,94.0,20.04
AL,Sweet Water Police Department,32.247591,-87.791091,AL0480600,Sweet Water,189.0,12.0,6.35
AL,Aliceville Police Department,33.129322,-88.15072,AL0540100,Aliceville,2244.0,901.0,40.15
AL,Pickensville Police Department,33.296808,-88.096878,AL0540500,Pickensville,790.0,194.0,24.56
AL,Gordo Police Department,33.296808,-88.096878,AL0540200,Gordo,1599.0,213.0,13.32
AL,Carrollton Police Department,33.296808,-88.096878,AL0540400,Carrollton,1100.0,226.0,20.55
AL,Reform Police Department,33.296808,-88.096878,AL0540300,Reform,1929.0,582.0,30.17
AL,Addison Police Department,34.155888,-87.364147,AL0670300,Addison,697.0,72.0,10.33
AL,Lynn Police Department,34.155888,-87.364147,AL0670500,Lynn,811.0,186.0,22.93
AL,Double Springs Police Department,34.155888,-87.364147,AL0670100,Double Springs,1753.0,618.0,35.25
AL,Arley Police Department,34.155888,-87.364147,AL0670400,Arley,625.0,228.0,36.48
AL,Valley Police Department,32.915504,-85.394032,AL0120400,Valley,6037.0,1351.0,22.38
AL,Lanett Police Department,32.915504,-85.394032,AL0120200,Lanett,6821.0,1214.0,17.8
AL,Centre Police Department,34.1512,-85.67609,AL0130100,Centre,3497.0,611.0,17.47
AL,Leesburg Police Department,34.069515,-85.654242,AL0130300,Leesburg,697.0,108.0,15.49
AL,Cedar Bluff Police Department,34.069515,-85.654242,AL0130200,Cedar Bluff,1700.0,426.0,25.06
AL,Ranburne Police Department,33.671964,-85.516126,AL0180200,Ranburne,560.0,66.0,11.79
AL,Heflin Police Department,33.671964,-85.516126,AL0180100,Heflin,3416.0,753.0,22.04
AL,Luverne Police Department,31.732826,-86.319222,AL0240100,Luverne,2716.0,283.0,10.42
AL,Brantley Police Department,31.732826,-86.319222,AL0240200,Brantley,966.0,145.0,15.01
AL,Flomaton Police Department,31.121747,-87.168429,AL0300400,Flomaton,1728.0,568.0,32.87
AL,East Brewton Police Department,31.121747,-87.168429,AL0300300,East Brewton,3131.0,734.0,23.44
AL,Brewton Police Department,31.121747,-87.168429,AL0300200,Brewton,5288.0,902.0,17.06
AL,Atmore Police Department,31.121747,-87.168429,AL0300100,Atmore,8734.0,2301.0,26.35
AL,Russellville Police Department,34.476738,-87.72945,AL0330100,Russellville,10691.0,1776.0,16.61
AL,Phil Campbell Police Department,34.441989,-87.842814,AL0330200,Phil Campbell,725.0,196.0,27.03
AL,Red Bay Police Department,34.441989,-87.842814,AL0330300,Red Bay,3187.0,910.0,28.55
AL,Moulton Police Department,34.48087,-87.29011,AL0420100,Moulton,3356.0,598.0,17.82
AL,North Courtland Police Department,34.529776,-87.321865,AL0420500,North Courtland,581.0,160.0,27.54
AL,Hillsboro Police Department,34.529776,-87.321865,AL0420400,Hillsboro,678.0,28.0,4.13
AL,Courtland Police Department,34.529776,-87.321865,AL0420300,Courtland,846.0,286.0,33.81
AL,Town Creek Police Department,34.529776,-87.321865,AL0420200,Town Creek,1006.0,249.0,24.75
AL,Albertville Police Department,34.309564,-86.321668,AL0500100,Albertville,22268.0,4552.0,20.44
AL,Guntersville Police Department,34.36029,-86.29187,AL0500200,Guntersville,8559.0,1554.0,18.16
AL,Grant Police Department,34.309564,-86.321668,AL0500500,Grant,1524.0,127.0,8.33
AL,Douglas Police Department,34.309564,-86.321668,AL0500600,Douglas,1007.0,229.0,22.74
AL,Roanoke Police Department,33.150887,-85.37395,AL0560100,Roanoke,5368.0,1071.0,19.95
AL,Wadley Police Department,33.296475,-85.464068,AL0560200,Wadley,829.0,157.0,18.94
AL,Wedowee Police Department,33.296475,-85.464068,AL0560300,Wedowee,863.0,167.0,19.35
AL,Ashville Police Department,33.712963,-86.315663,AL0580200,Ashville,2096.0,372.0,17.75
AL,Springville Police Department,33.712963,-86.315663,AL0580400,Springville,4747.0,109.0,2.3
AL,Odenville Police Department,33.712963,-86.315663,AL0580500,Odenville,4800.0,424.0,8.83
AL,Moody Police Department,33.712963,-86.315663,AL0580600,Moody,13100.0,1538.0,11.74
AL,Riverside Police Department,33.712963,-86.315663,AL0580700,Riverside,2411.0,430.0,17.83
AL,Margaret Police Department,33.712963,-86.315663,AL0580800,Margaret,5118.0,293.0,5.72
AL,Steele Police Department,33.712963,-86.315663,AL0580900,Steele,1299.0,533.0,41.03
AL,Pell City Police Department,33.712963,-86.315663,AL0580100,Pell City,12923.0,1951.0,15.1
AL,Ragland Police Department,33.699944,-86.25525,AL0580300,Ragland,1784.0,468.0,26.23
AL,Opp Police Department,31.243987,-86.448721,AL0230200,Opp,681.0,51.0,7.49
AL,Florala Police Department,31.243987,-86.448721,AL0230300,Florala,1779.0,517.0,29.06
AL,Gantt Police Department,31.243987,-86.448721,AL0230400,Gantt,143.0,16.0,11.19
AL,Red Level Police Department,31.243987,-86.448721,AL0230500,Red Level,462.0,98.0,21.21
AL,Lockhart Police Department,31.243987,-86.448721,AL0230600,Lockhart,264.0,29.0,10.98
AL,River Falls Police Department,31.243987,-86.448721,AL0230700,River Falls,603.0,98.0,16.25
AL,Andalusia Police Department,31.243987,-86.448721,AL0230100,Andalusia,8764.0,1895.0,21.62
AL,Bessemer Police Department,33.396152,-86.95345,AL0010100,Bessemer,26171.0,7397.0,28.26
AL,Mountain Brook Police Department,33.50124,-86.75607,AL0010300,Mountain Brook,22184.0,889.0,4.01
AL,Fairfield Police Department,33.553444,-86.896536,AL0010400,Fairfield,10108.0,1833.0,18.13
AL,Gardendale Police Department,33.553444,-86.896536,AL0010500,Gardendale,15920.0,829.0,5.21
AL,Midfield Police Department,33.553444,-86.896536,AL0010700,Midfield,5219.0,1047.0,20.06
AL,Tarrant Police Department,33.585728,-86.775024,AL0010800,Tarrant,6137.0,1460.0,23.79
AL,Homewood Police Department,33.479603,-86.791016,AL0011000,Homewood,26206.0,1908.0,7.28
AL,Fultondale Police Department,33.553444,-86.896536,AL0011100,Fultondale,9707.0,1199.0,12.35
AL,Irondale Police Department,33.538326,-86.70705,AL0011300,Irondale,13457.0,1833.0,13.62
AL,Pleasant Grove Police Department,33.49046,-86.9703,AL0011400,Pleasant Grove,9638.0,720.0,7.47
AL,Graysville Police Department,33.553444,-86.896536,AL0011600,Graysville,2723.0,390.0,14.32
AL,Brighton Police Department,33.42912,-86.94988,AL0011800,Brighton,2904.0,1085.0,37.36
AL,Hueytown Police Department,33.553444,-86.896536,AL0011900,Hueytown,16694.0,1705.0,10.21
AL,Lipscomb Police Department,33.553444,-86.896536,AL0012000,Lipscomb,2113.0,570.0,26.98
AL,Adamsville Police Department,33.553444,-86.896536,AL0012200,Adamsville,4381.0,1167.0,26.64
AL,Warrior Police Department,33.553444,-86.896536,AL0012300,Warrior,3211.0,551.0,17.16
AL,Trafford Police Department,33.553444,-86.896536,AL0012500,Trafford,446.0,156.0,34.98
AL,Morris Police Department,33.553444,-86.896536,AL0012600,Morris,2248.0,145.0,6.45
AL,Brookside Police Department,33.553444,-86.896536,AL0012700,Brookside,1252.0,90.0,7.19
AL,Kimberly Police Department,33.553444,-86.896536,AL0012900,Kimberly,3792.0,197.0,5.2
AL,Ardmore Police Department,34.810239,-86.981399,AL0440200,Ardmore,1276.0,208.0,16.3
AL,Athens Police Department,34.803825,-86.95889,AL0440100,Athens,25213.0,3362.0,13.33
AL,Talladega Police Department,33.369277,-86.175805,AL0610200,Talladega,15782.0,3498.0,22.16
AL,Sylacauga Police Department,33.369277,-86.175805,AL0610100,Sylacauga,12512.0,3088.0,24.68
AL,Childersburg Police Department,33.278336,-86.35341,AL0610300,Childersburg,4768.0,925.0,19.4
AL,Lincoln Police Department,33.369277,-86.175805,AL0610400,Lincoln,6836.0,1052.0,15.39
AL,Munford Police Department,33.369277,-86.175805,AL0611200,Munford,1582.0,446.0,28.19
AL,St. Florian Police Department,34.904122,-87.650997,AL0410400,St. Florian,510.0,9.0,1.76
AL,Florence Police Department,34.904122,-87.650997,AL0410100,Florence,39709.0,7649.0,19.26
AL,Lexington Police Department,34.904122,-87.650997,AL0410500,Lexington,940.0,113.0,12.02
AL,Rogersville Police Department,34.904122,-87.650997,AL0410600,Rogersville,1339.0,187.0,13.97
AL,Killen Police Department,34.904122,-87.650997,AL0410700,Killen,1209.0,115.0,9.51
AL,Notasulga Police Department,32.387027,-85.692887,AL0460200,Notasulga,1082.0,251.0,23.2
AL,Montgomery Police Department,32.20365,-86.203831,AL0030100,Montgomery,201022.0,41068.0,20.43
AL,Alexander City Police Department,32.863369,-85.799553,AL0620100,Alexander City,14765.0,2566.0,17.38
AL,Dadeville Police Department,32.829388,-85.76364,AL0620200,Dadeville,3051.0,827.0,27.11
AL,Camp Hill Police Department,32.863369,-85.799553,AL0620300,Camp Hill,1324.0,489.0,36.93
AL,New Site Police Department,32.863369,-85.799553,AL0620600,New Site,830.0,99.0,11.93
AL,Tuscaloosa Police Department,33.173267,-87.55792,AL0630100,Tuscaloosa,99252.0,20272.0,20.42
AL,Northport Police Department,33.290202,-87.52286,AL0630200,Northport,30334.0,4001.0,13.19
AL,Brookwood Police Department,33.290202,-87.52286,AL0630800,Brookwood,2406.0,193.0,8.02
AL,Coaling Police Department,33.290202,-87.52286,AL0631400,Coaling,2112.0,137.0,6.49
AL,McIntosh Police Department,31.405217,-88.197564,AL0650100,McIntosh,455.0,47.0,10.33
AL,Chatom Police Department,31.405217,-88.197564,AL0650300,Chatom,789.0,160.0,20.28
AL,Millry Police Department,31.405217,-88.197564,AL0650200,Millry,620.0,66.0,10.65
AL,Enterprise Police Department,31.402258,-85.989602,AL0190200,Enterprise,28242.0,4502.0,15.94
AL,Phenix City Police Department,32.46812,-85.00083,AL0570100,Phenix City,38216.0,9875.0,25.84
AL,Altoona Police Department,34.047648,-86.034522,AL0310900,Altoona,1444.0,259.0,17.94
AL,Prattville Police Department,32.459705,-86.47263,AL0040100,Prattville,37977.0,4623.0,12.17
AL,Millbrook Police Department,32.597229,-86.142738,AL0290600,Millbrook,16675.0,1580.0,9.48
AL,McKenzie Police Department,31.751667,-86.681969,AL0100300,McKenzie,917.0,179.0,19.52
AL,Glencoe Police Department,34.047648,-86.034522,AL0310400,Glencoe,5360.0,292.0,5.45
AL,Southside Police Department,33.92092,-86.02231,AL0310700,Southside,9253.0,458.0,4.95
AL,Calera Police Department,33.262937,-86.678104,AL0590100,Calera,16126.0,1077.0,6.68
AL,Winfield Police Department,34.138219,-87.881551,AL0490200,Winfield,4807.0,1010.0,21.01
AL,Taylor Police Department,31.160837,-85.46916,AL0380900,Taylor,2581.0,463.0,17.94
AL,Haleyville Police Department,34.155888,-87.364147,AL0670200,Haleyville,4343.0,847.0,19.5
AL,Woodstock Police Department,33.015893,-87.127148,AL0070400,Woodstock,1232.0,225.0,18.26
AL,Vance Police Department,33.290202,-87.52286,AL0630700,Vance,1851.0,218.0,11.78
AL,Collinsville Police Department,34.460929,-85.803992,AL0280200,Collinsville,2044.0,545.0,26.66
AL,Boaz Police Department,34.1956,-86.16411,AL0500400,Boaz,10091.0,2135.0,21.16
AL,Moundville Police Department,32.752796,-87.623061,AL0360200,Moundville,2774.0,491.0,17.7
AL,Trinity Police Department,34.610783,-87.08653,AL0520700,Trinity,2498.0,302.0,12.09
AL,Arab Police Department,34.32761,-86.4977,AL0500300,Arab,8462.0,1184.0,13.99
AL,Hoover Police Department,33.38795,-86.80636,AL0011200,Hoover,91371.0,6041.0,6.61
AL,Vestavia Hills Police Department,33.553444,-86.896536,AL0010900,Vestavia Hills,38504.0,1475.0,3.83
AL,Birmingham Police Department,33.553444,-86.896536,AL0010200,Birmingham,202234.0,49752.0,24.6
AL,Helena Police Department,33.262937,-86.678104,AL0590700,Helena,20680.0,998.0,4.83
AL,Sumiton Police Department,33.791558,-87.301094,AL0640500,Sumiton,2676.0,240.0,8.97
AL,Decatur Police Department,34.454484,-86.846402,AL0520100,Decatur,57303.0,8568.0,14.95
AL,Oxford Police Department,33.771706,-85.822513,AL0110500,Oxford,22210.0,2770.0,12.47
AL,Tallassee Police Department,32.597229,-86.142738,AL0290200,Tallassee,5199.0,647.0,12.44
AL,Huntsville Police Department,34.764238,-86.55108,AL0470100,Huntsville,210081.0,29379.0,13.98
AL,Madison Police Department,34.6994,-86.74227,AL0470200,Madison,55551.0,2745.0,4.94
AL,Argo Police Department,33.68995,-86.50901,AL0581200,Argo,4411.0,357.0,8.09
AL,Trussville Police Department,33.553444,-86.896536,AL0012100,Trussville,25027.0,931.0,3.72
AL,Dothan Police Department,31.225441,-85.3914,AL0380100,Dothan,70318.0,12622.0,17.95
AL,Lake View Police Department,33.290202,-87.52286,AL0631100,Lake View,3357.0,147.0,4.38
AL,Leeds Police Department,33.553444,-86.896536,AL0010600,Leeds,12385.0,1053.0,8.5
AR,Marianna Police Department,34.774353,-90.756905,AR0390100,Marianna,3660.0,1399.0,38.22
AR,Corning Police Department,36.367302,-90.418704,AR0110100,Corning,3226.0,634.0,19.65
AR,Piggott Police Department,36.381676,-90.19208,AR0110200,Piggott,3629.0,732.0,20.17
AR,Monticello Police Department,33.587242,-91.722778,AR0220100,Monticello,8567.0,2055.0,23.99
AR,Murfreesboro Police Department,34.158191,-93.658659,AR0550100,Murfreesboro,1800.0,533.0,29.61
AR,Mena Police Department,34.586895,-94.23994,AR0570100,Mena,5626.0,1408.0,25.03
AR,Dover Police Department,35.455297,-93.031535,AR0580700,Dover,2342.0,456.0,19.47
AR,Russellville Police Department,35.28542,-93.13359,AR0580100,Russellville,29057.0,5451.0,18.76
AR,Atkins Police Department,35.455297,-93.031535,AR0580200,Atkins,2869.0,455.0,15.86
AR,Pottsville Police Department,35.24981,-93.04601,AR0581000,Pottsville,3098.0,379.0,12.23
AR,Dardanelle Police Department,34.997713,-93.408303,AR0750100,Dardanelle,4532.0,617.0,13.61
AR,Danville Police Department,34.997713,-93.408303,AR0750200,Danville,2104.0,442.0,21.01
AR,Ola Police Department,34.997713,-93.408303,AR0750300,Ola,573.0,86.0,15.01
AR,Harrison Police Department,36.304308,-93.079204,AR0050100,Harrison,13081.0,2045.0,15.63
AR,Diamond City Police Department,36.304308,-93.079204,AR0050200,Diamond City,915.0,208.0,22.73
AR,Arkadelphia Police Department,34.12099,-93.053696,AR0100100,Arkadelphia,10332.0,2054.0,19.88
AR,Gurdon Police Department,34.053316,-93.176208,AR0100200,Gurdon,2051.0,403.0,19.65
AR,Caddo Valley Police Department,34.18449,-93.06645,AR0100300,Caddo Valley,625.0,183.0,29.28
AR,Amity Police Department,34.053316,-93.176208,AR0100500,Amity,850.0,228.0,26.82
AR,Wynne Police Department,35.223675,-90.78702,AR0190100,Wynne,8352.0,1852.0,22.17
AR,Parkin Police Department,35.291259,-90.773894,AR0190200,Parkin,706.0,148.0,20.96
AR,McGehee Police Department,33.828748,-91.244427,AR0210100,McGehee,3895.0,1219.0,31.3
AR,Dumas Police Department,33.828748,-91.244427,AR0210300,Dumas,4059.0,1171.0,28.85
AR,Sheridan Police Department,34.305027,-92.39071,AR0270100,Sheridan,4908.0,742.0,15.12
AR,Paris Police Department,35.218549,-93.720563,AR0420200,Paris,3254.0,790.0,24.28
AR,Booneville Police Department,35.140034,-93.91495,AR0420100,Booneville,3828.0,781.0,20.4
AR,Perryville Police Department,34.946363,-92.926877,AR0530100,Perryville,1331.0,221.0,16.6
AR,Waldron Police Department,34.858869,-94.063641,AR0640100,Waldron,3333.0,735.0,22.05
AR,Highland Police Department,36.259796,-91.54158,AR0680600,Highland,1185.0,135.0,11.39
AR,Mountain View Police Department,35.856989,-92.140494,AR0690100,Mountain View,2833.0,789.0,27.85
AR,El Dorado Police Department,33.168219,-92.598145,AR0700100,El Dorado,201.0,0.0,
AR,Smackover Police Department,33.364445,-92.72366,AR0700200,Smackover,2000.0,244.0,12.2
AR,Bald Knob Police Department,35.254722,-91.753158,AR0730200,Bald Knob,2564.0,555.0,21.65
AR,Beebe Police Department,35.254722,-91.753158,AR0730300,Beebe,8343.0,817.0,9.79
AR,Kensett Police Department,35.23232,-91.66712,AR0730400,Kensett,2207.0,636.0,28.82
AR,Pangburn Police Department,35.254722,-91.753158,AR0730500,Pangburn,645.0,112.0,17.36
AR,Rose Bud Police Department,35.254722,-91.753158,AR0730600,Rose Bud,492.0,105.0,21.34
AR,Judsonia Police Department,35.254722,-91.753158,AR0730700,Judsonia,2150.0,476.0,22.14
AR,Bradford Police Department,35.42481,-91.456474,AR0730800,Bradford,579.0,136.0,23.49
AR,Higginson Police Department,35.254722,-91.753158,AR0730900,Higginson,931.0,181.0,19.44
AR,McRae Police Department,35.112488,-91.82137,AR0731000,McRae,735.0,203.0,27.62
AR,Searcy Police Department,35.254722,-91.753158,AR0730100,Searcy,23074.0,4162.0,18.04
AR,Hamburg Police Department,33.190835,-91.772267,AR0020200,Hamburg,2649.0,643.0,24.27
AR,Crossett Police Department,33.190835,-91.772267,AR0020100,Crossett,4888.0,1313.0,26.86
AR,Gassville Police Department,36.28071,-92.330438,AR0030300,Gassville,2324.0,404.0,17.38
AR,Lakeview Police Department,36.28071,-92.330438,AR0030400,Lakeview,987.0,143.0,14.49
AR,Norfork Police Department,36.28071,-92.330438,AR0030500,Norfork,522.0,205.0,39.27
AR,Mountain Home Police Department,36.333,-92.38602,AR0030100,Mountain Home,12722.0,1824.0,14.34
AR,Cotter Police Department,36.28071,-92.330438,AR0030200,Cotter,1019.0,189.0,18.55
AR,Bella Vista Police Department,36.337825,-94.256187,AR0042100,Bella Vista,29818.0,977.0,3.28
AR,Highfill Police Department,36.25874,-94.350586,AR0042000,Highfill,1404.0,111.0,7.91
AR,Bentonville Police Department,36.38833,-94.21991,AR0040100,Bentonville,52565.0,3691.0,7.02
AR,Rogers Police Department,36.337825,-94.256187,AR0040200,Rogers,68340.0,6524.0,9.55
AR,Siloam Springs Police Department,36.18789,-94.54058,AR0040300,Siloam Springs,16944.0,2857.0,16.86
AR,Pea Ridge Police Department,36.337825,-94.256187,AR0040400,Pea Ridge,6491.0,278.0,4.28
AR,Gentry Police Department,36.267563,-94.483574,AR0040500,Gentry,3816.0,541.0,14.18
AR,Lowell Police Department,36.2561,-94.13233,AR0040600,Lowell,9630.0,615.0,6.39
AR,Gravette Police Department,36.42675,-94.45365,AR0040700,Gravette,3514.0,209.0,5.95
AR,Decatur Police Department,36.337825,-94.256187,AR0040800,Decatur,1416.0,291.0,20.55
AR,Cave Springs Police Department,36.337825,-94.256187,AR0040900,Cave Springs,5224.0,53.0,1.01
AR,Sulphur Springs Police Department,36.337825,-94.256187,AR0041100,Sulphur Springs,485.0,134.0,27.63
AR,Centerton Police Department,36.337825,-94.256187,AR0041300,Centerton,17455.0,929.0,5.32
AR,Little Flock Police Department,36.37721,-94.13746,AR0041600,Little Flock,2977.0,625.0,20.99
AR,Eudora Police Department,33.108925,-91.26192,AR0090200,Eudora,201.0,0.0,
AR,Lake Village Police Department,33.267139,-91.297158,AR0090300,Lake Village,2247.0,457.0,20.34
AR,Plumerville Police Department,35.265702,-92.689248,AR0150300,Plumerville,840.0,182.0,21.67
AR,Menifee Police Department,35.265702,-92.689248,AR0150400,Menifee,151.0,6.0,3.97
AR,Morrilton Police Department,35.265702,-92.689248,AR0150100,Morrilton,6948.0,2075.0,29.86
AR,Fordyce Police Department,33.967823,-92.653999,AR0200100,Fordyce,3516.0,445.0,12.66
AR,Salem Police Department,36.383447,-91.819245,AR0250100,Salem,34.0,0.0,
AR,Mammoth Spring Police Department,36.383447,-91.819245,AR0250200,Mammoth Spring,1173.0,221.0,18.84
AR,Marmaduke Police Department,36.186962,-90.38301,AR0280200,Marmaduke,1581.0,379.0,23.97
AR,Paragould Police Department,36.119922,-90.565241,AR0280100,Paragould,29327.0,5155.0,17.58
AR,Mineral Springs Police Department,34.083064,-93.990931,AR0310400,Mineral Springs,1130.0,121.0,10.71
AR,Nashville Police Department,33.947216,-93.84702,AR0310100,Nashville,4193.0,1145.0,27.31
AR,Austin Police Department,34.755114,-91.894132,AR0430500,Austin,3486.0,209.0,6.0
AR,Ward Police Department,34.755114,-91.894132,AR0430600,Ward,5943.0,889.0,14.96
AR,England Police Department,34.755114,-91.894132,AR0430100,England,2502.0,597.0,23.86
AR,Cabot Police Department,34.755114,-91.894132,AR0430200,Cabot,26411.0,2979.0,11.28
AR,Carlisle Police Department,34.755114,-91.894132,AR0430300,Carlisle,2282.0,392.0,17.18
AR,Lonoke Police Department,34.783905,-91.901344,AR0430400,Lonoke,4181.0,594.0,14.21
AR,Bull Shoals Police Department,36.266656,-92.678588,AR0450200,Bull Shoals,1728.0,171.0,9.9
AR,Flippin Police Department,36.266656,-92.678588,AR0450300,Flippin,1296.0,344.0,26.54
AR,Texarkana Police Department,33.421623,-94.04305,AR0460100,Texarkana,29492.0,6084.0,20.63
AR,Clarendon Police Department,34.679513,-91.203314,AR0480200,Clarendon,1480.0,378.0,25.54
AR,Brinkley Police Department,34.888054,-91.1939,AR0480100,Brinkley,2742.0,733.0,26.73
AR,Prescott Police Department,33.801895,-93.381935,AR0500100,Prescott,3076.0,910.0,29.58
AR,Shannon Hills Police Department,34.648525,-92.674463,AR0630400,Shannon Hills,4365.0,151.0,3.46
AR,Benton Police Department,34.56359,-92.585594,AR0630100,Benton,34746.0,3684.0,10.6
AR,Bryant Police Department,34.61423,-92.49969,AR0630200,Bryant,20399.0,992.0,4.86
AR,De Queen Police Department,34.038074,-94.33912,AR0670100,De Queen,6192.0,1655.0,26.73
AR,Warren Police Department,33.615875,-92.06316,AR0060100,Warren,5485.0,1214.0,22.13
AR,Hampton Police Department,33.56046,-92.513879,AR0070100,Hampton,1470.0,187.0,12.72
AR,Berryville Police Department,36.36506,-93.56514,AR0080100,Berryville,5612.0,954.0,17.0
AR,Eureka Springs Police Department,36.337774,-93.541663,AR0080200,Eureka Springs,2159.0,223.0,10.33
AR,Green Forest Police Department,36.337774,-93.541663,AR0080300,Green Forest,2983.0,731.0,24.51
AR,Hot Springs Police Department,34.578861,-93.146915,AR0260100,Hot Springs,38050.0,7456.0,19.6
AR,Diaz Police Department,35.596605,-91.223178,AR0340300,Diaz,1213.0,161.0,13.27
AR,Tuckerman Police Department,35.596605,-91.223178,AR0340200,Tuckerman,101.0,48.0,47.52
AR,Newport Police Department,35.596605,-91.223178,AR0340100,Newport,7829.0,1351.0,17.26
AR,Swifton Police Department,35.596605,-91.223178,AR0340600,Swifton,1229.0,483.0,39.3
AR,Clarksville Police Department,35.47226,-93.4646,AR0360100,Clarksville,9444.0,1949.0,20.64
AR,Lamar Police Department,35.573359,-93.466322,AR0360300,Lamar,1535.0,363.0,23.65
AR,Star City Police Department,33.957665,-91.727624,AR0400200,Star City,1948.0,201.0,10.32
AR,Huntsville Police Department,36.012545,-93.724053,AR0440100,Huntsville,2809.0,658.0,23.42
AR,Des Arc Police Department,34.828225,-91.557199,AR0590200,Des Arc,1341.0,140.0,10.44
AR,De Valls Bluff Police Department,34.828225,-91.557199,AR0590300,De Valls Bluff,621.0,104.0,16.75
AR,Hazen Police Department,34.828225,-91.557199,AR0590100,Hazen,1739.0,314.0,18.06
AR,Jacksonville Police Department,34.867607,-92.12715,AR0600100,Jacksonville,29385.0,5443.0,18.52
AR,Little Rock Police Department,34.749084,-92.277565,AR0600200,Little Rock,201893.0,30881.0,15.3
AR,North Little Rock Police Department,34.77923,-92.26978,AR0600300,North Little Rock,64444.0,13890.0,21.55
AR,Sherwood Police Department,34.832664,-92.209816,AR0600400,Sherwood,32544.0,2507.0,7.7
AR,Cammack Village Police Department,34.776836,-92.34476,AR0600800,Cammack Village,790.0,59.0,7.47
AR,Maumelle Police Department,34.773988,-92.316515,AR0601600,Maumelle,19070.0,1112.0,5.83
AR,Stuttgart Police Department,34.498188,-91.55266,AR0010200,Stuttgart,8363.0,1447.0,17.3
AR,Gillett Police Department,34.289573,-91.376547,AR0010300,Gillett,414.0,46.0,11.11
AR,St. Charles Police Department,34.289573,-91.376547,AR0010500,St. Charles,274.0,23.0,8.39
AR,Heber Springs Police Department,35.566288,-92.059974,AR0120100,Heber Springs,7015.0,1022.0,14.57
AR,Greers Ferry Police Department,35.566288,-92.059974,AR0120300,Greers Ferry,902.0,184.0,20.4
AR,Magnolia Police Department,33.223038,-93.232843,AR0140100,Magnolia,11205.0,2511.0,22.41
AR,Mulberry Police Department,35.583041,-94.236224,AR0170300,Mulberry,1516.0,288.0,19.0
AR,Van Buren Police Department,35.438732,-94.348175,AR0170100,Van Buren,23213.0,4296.0,18.51
AR,Alma Police Department,35.583041,-94.236224,AR0170200,Alma,5806.0,1797.0,30.95
AR,Dyer Police Department,35.583041,-94.236224,AR0170500,Dyer,882.0,158.0,17.91
AR,Conway Police Department,35.08855,-92.43863,AR0230100,Conway,63746.0,10892.0,17.09
AR,Greenbrier Police Department,35.146356,-92.324654,AR0230200,Greenbrier,5683.0,659.0,11.6
AR,Mayflower Police Department,35.146356,-92.324654,AR0230300,Mayflower,2305.0,179.0,7.77
AR,Vilonia Police Department,35.146356,-92.324654,AR0230400,Vilonia,4318.0,479.0,11.09
AR,Guy Police Department,35.146356,-92.324654,AR0230500,Guy,679.0,102.0,15.02
AR,Altus Police Department,35.508573,-93.887672,AR0240300,Altus,898.0,391.0,43.54
AR,Ozark Police Department,35.508573,-93.887672,AR0240100,Ozark,3559.0,1007.0,28.29
AR,Charleston Police Department,35.508573,-93.887672,AR0240200,Charleston,2582.0,316.0,12.24
AR,Ravenden Police Department,36.244396,-91.27053,AR0380400,Ravenden,336.0,98.0,29.17
AR,Hoxie Police Department,36.041098,-91.101153,AR0380200,Hoxie,2618.0,377.0,14.4
AR,Black Rock Police Department,36.041098,-91.101153,AR0380500,Black Rock,860.0,78.0,9.07
AR,Walnut Ridge Police Department,36.068058,-90.95553,AR0380100,Walnut Ridge,5392.0,1097.0,20.34
AR,Camden Police Department,33.577393,-92.834,AR0520100,Camden,10644.0,2581.0,24.25
AR,Helena-West Helena Police Department,34.54406,-90.649284,AR0540100,Helena-West Helena,9707.0,4124.0,42.48
AR,Marked Tree Police Department,35.531933,-90.422485,AR0560100,Marked Tree,2144.0,628.0,29.29
AR,Harrisburg Police Department,35.561455,-90.717445,AR0560300,Harrisburg,2700.0,623.0,23.07
AR,Trumann Police Department,35.568981,-90.680595,AR0560200,Trumann,7416.0,1880.0,25.35
AR,Lepanto Police Department,35.568981,-90.680595,AR0560400,Lepanto,1785.0,271.0,15.18
AR,Tyronza Police Department,35.492546,-90.3585,AR0560500,Tyronza,715.0,122.0,17.06
AR,Weiner Police Department,35.619717,-90.899994,AR0560700,Weiner,796.0,138.0,17.34
AR,Pocahontas Police Department,36.262936,-90.96942,AR0610100,Pocahontas,7269.0,1636.0,22.51
AR,Augusta Police Department,35.189071,-91.244418,AR0740100,Augusta,2024.0,427.0,21.1
AR,McCrory Police Department,35.189071,-91.244418,AR0740200,McCrory,1729.0,359.0,20.76
AR,Caraway Police Department,35.828268,-90.630411,AR0160200,Caraway,1239.0,257.0,20.74
AR,Lake City Police Department,35.828268,-90.630411,AR0160300,Lake City,2122.0,322.0,15.17
AR,Bay Police Department,35.828268,-90.630411,AR0160400,Bay,2348.0,345.0,14.69
AR,Monette Police Department,35.828268,-90.630411,AR0160600,Monette,1317.0,179.0,13.59
AR,Bono Police Department,35.828268,-90.630411,AR0160700,Bono,2434.0,305.0,12.53
AR,Brookland Police Department,35.828268,-90.630411,AR0161500,Brookland,3884.0,320.0,8.24
AR,Jonesboro Police Department,35.838394,-90.70817,AR0160100,Jonesboro,77520.0,15173.0,19.57
AR,Hope Police Department,33.728611,-93.665809,AR0290100,Hope,9010.0,2463.0,27.34
AR,Pine Bluff Police Department,34.221638,-92.00195,AR0350100,Pine Bluff,41964.0,9010.0,21.47
AR,Redfield Police Department,34.277695,-91.930701,AR0350300,Redfield,1352.0,164.0,12.13
AR,White Hall Police Department,34.273453,-92.09051,AR0350200,White Hall,5599.0,643.0,11.48
AR,Stamps Police Department,33.36069,-93.49839,AR0370200,Stamps,1530.0,588.0,38.43
AR,Lewisville Police Department,33.24066,-93.611643,AR0370300,Lewisville,916.0,135.0,14.74
AR,Fort Smith Police Department,35.38317,-94.4234,AR0660100,Fort Smith,89116.0,16650.0,18.68
AR,Greenwood Police Department,35.196981,-94.274989,AR0660200,Greenwood,9498.0,1136.0,11.96
AR,Barling Police Department,35.3253,-94.29946,AR0660300,Barling,4802.0,1541.0,32.09
AR,Lavaca Police Department,35.196981,-94.274989,AR0661200,Lavaca,2443.0,236.0,9.66
AR,Clinton Police Department,35.582959,-92.515977,AR0710200,Clinton,2525.0,517.0,20.48
AR,Marion Police Department,35.211878,-90.315331,AR0180400,Marion,13624.0,924.0,6.78
AR,Earle Police Department,35.211878,-90.315331,AR0180200,Earle,1888.0,546.0,28.92
AR,West Memphis Police Department,35.146515,-90.17703,AR0180100,West Memphis,24666.0,6117.0,24.8
AR,Malvern Police Department,34.356274,-92.80937,AR0300100,Malvern,10626.0,2230.0,20.99
AR,Forrest City Police Department,35.010025,-90.78682,AR0620100,Forrest City,13372.0,3401.0,25.43
AR,Madison  Police Department,35.014438,-90.742138,AR0620600,Madison,862.0,246.0,28.54
AR,Hughes Police Department,35.014438,-90.742138,AR0620200,Hughes,895.0,326.0,36.42
AR,Fayetteville Police Department,36.06085,-94.15727,AR0720100,Fayetteville,92070.0,18074.0,19.63
AR,Prairie Grove Police Department,35.971209,-94.218417,AR0720300,Prairie Grove,6908.0,997.0,14.43
AR,Farmington Police Department,35.971209,-94.218417,AR0720500,Farmington,7601.0,264.0,3.47
AR,Lincoln Police Department,35.971209,-94.218417,AR0720600,Lincoln,2269.0,364.0,16.04
AR,Greenland Police Department,35.971209,-94.218417,AR0720700,Greenland,1516.0,95.0,6.27
AR,West Fork Police Department,35.971209,-94.218417,AR0720800,West Fork,3225.0,156.0,4.84
AR,Johnson Police Department,35.971209,-94.218417,AR0720900,Johnson,3612.0,129.0,3.57
AR,Elkins Police Department,36.0264,-94.0277,AR0721000,Elkins,3566.0,187.0,5.24
AR,Blytheville Police Department,35.928474,-89.904274,AR0470100,Blytheville,13559.0,3143.0,23.18
AR,Osceola Police Department,35.766943,-90.052209,AR0470200,Osceola,7016.0,1589.0,22.65
AR,Leachville Police Department,35.766943,-90.052209,AR0470300,Leachville,2383.0,784.0,32.9
AR,Luxora Police Department,35.766943,-90.052209,AR0470500,Luxora,1057.0,260.0,24.6
AR,Gosnell Police Department,35.957237,-89.965126,AR0470700,Gosnell,2965.0,516.0,17.4
AR,Etowah Police Department,35.766943,-90.052209,AR0471000,Etowah,344.0,115.0,33.43
AR,Batesville Police Department,35.771168,-91.65075,AR0320100,Batesville,11117.0,2057.0,18.5
AR,Ashdown Police Department,33.699497,-94.229774,AR0410100,Ashdown,4242.0,623.0,14.69
AR,Ash Flat Police Department,36.173399,-91.471069,AR0680300,Ash Flat,1293.0,210.0,16.24
AR,Cherokee Village Police Department,36.173399,-91.471069,AR0680400,Cherokee Village,57.0,14.0,24.56
AR,Hardy Police Department,36.173399,-91.471069,AR0680200,Hardy,715.0,138.0,19.3
AR,Alexander Police Department,34.773988,-92.316515,AR0600700,Alexander,3363.0,744.0,22.12
AR,Glenwood Police Department,34.327526,-93.55145,AR0550200,Glenwood,1845.0,423.0,22.93
AR,Mansfield Police Department,35.196981,-94.274989,AR0660700,Mansfield,1228.0,336.0,27.36
AR,Springdale Police Department,36.18645,-94.12982,AR0720200,Springdale,85887.0,12840.0,14.95
AR,Quitman Police Department,35.566288,-92.059974,AR0120200,Quitman,788.0,169.0,21.45
AR,Fairfield Bay Police Department,35.582959,-92.515977,AR0710100,Fairfield Bay,2190.0,153.0,6.99
AR,Damascus Police Department,35.582959,-92.515977,AR0710300,Damascus,418.0,125.0,29.9
AZ,Globe Police Department,33.395485,-110.788,AZ0040100,Globe,276.0,16.0,5.8
AZ,Hayden Police Department,33.789618,-110.81187,AZ0040300,Hayden,374.0,70.0,18.72
AZ,Miami Police Department,33.398,-110.873184,AZ0040500,Miami,1490.0,392.0,26.31
AZ,Payson Police Department,34.242653,-111.322914,AZ0040600,Payson,16229.0,1498.0,9.23
AZ,Marana Police Department,32.447636,-111.20846,AZ0100900,Marana,50834.0,2823.0,5.55
AZ,South Tucson Police Department,32.2026,-110.96844,AZ0100100,South Tucson,4726.0,1644.0,34.79
AZ,Tucson Police Department,32.21807,-110.9706,AZ0100300,Tucson,9627.0,207.0,2.15
AZ,Sahuarita Police Department,32.128238,-111.783018,AZ0100400,Sahuarita,33524.0,2966.0,8.85
AZ,Oro Valley Police Department,32.406918,-110.99574,AZ0100700,Oro Valley,46515.0,3122.0,6.71
AZ,Wellton Police Department,32.773942,-113.910905,AZ0140900,Wellton,2734.0,461.0,16.86
AZ,San Luis Police Department,32.773942,-113.910905,AZ0140800,San Luis,35289.0,8097.0,22.94
AZ,Yuma Police Department,32.700336,-114.62042,AZ0140500,Yuma,95154.0,15774.0,16.58
AZ,Somerton Police Department,32.773942,-113.910905,AZ0140300,Somerton,14126.0,2753.0,19.49
AZ,Florence Police Department,32.919038,-111.367005,AZ0110700,Florence,25356.0,1326.0,5.23
AZ,Casa Grande Police Department,32.878384,-111.751495,AZ0110100,Casa Grande,53488.0,7506.0,14.03
AZ,Coolidge Police Department,32.977688,-111.51674,AZ0110300,Coolidge,13347.0,2397.0,17.96
AZ,Eloy Police Department,32.755123,-111.55495,AZ0110500,Eloy,15171.0,1806.0,11.9
AZ,Maricopa Police Department,32.919038,-111.367005,AZ0111700,Maricopa,57075.0,3896.0,6.83
AZ,Superior Police Department,33.289993,-111.10822,AZ0111200,Superior,2679.0,543.0,20.27
AZ,Mammoth Police Department,32.919038,-111.367005,AZ0111100,Mammoth,1219.0,250.0,20.51
AZ,Kearny Police Department,32.919038,-111.367005,AZ0110900,Kearny,2198.0,181.0,8.23
AZ,Springerville Police Department,34.118523,-109.29155,AZ0010500,Springerville,2082.0,240.0,11.53
AZ,St. Johns Police Department,35.385084,-109.490172,AZ0010300,St. Johns,3416.0,394.0,11.53
AZ,Safford Police Department,32.834446,-109.71882,AZ0050300,Safford,9981.0,1913.0,19.17
AZ,Pima Police Department,32.931828,-109.87831,AZ0050100,Pima,2777.0,429.0,15.45
AZ,Thatcher Police Department,32.931828,-109.87831,AZ0050500,Thatcher,5172.0,655.0,12.66
AZ,Parker Police Department,33.727625,-114.038793,AZ0150100,Parker,3324.0,241.0,7.25
AZ,Quartzsite Police Department,33.727625,-114.038793,AZ0150300,Quartzsite,1745.0,578.0,33.12
AZ,Lake Havasu City Police Department,34.47879,-114.31841,AZ0080400,Lake Havasu City,56510.0,6643.0,11.76
AZ,Bullhead City Police Department,35.717705,-113.749689,AZ0080500,Bullhead City,41064.0,8144.0,19.83
AZ,Kingman Police Department,35.190815,-114.053375,AZ0080100,Kingman,32204.0,3836.0,11.91
AZ,Holbrook Police Department,35.390934,-110.320908,AZ0090100,Holbrook,4826.0,1007.0,20.87
AZ,Show Low Police Department,35.390934,-110.320908,AZ0090300,Show Low,11623.0,1450.0,12.48
AZ,Winslow Police Department,35.026752,-110.70396,AZ0090900,Winslow,8961.0,1843.0,20.57
AZ,Pinetop-Lakeside Police Department,34.15297,-109.97676,AZ0091300,Pinetop-Lakeside,1697.0,127.0,7.48
AZ,Bisbee Police Department,31.840129,-109.775163,AZ0020300,Bisbee,4957.0,765.0,15.43
AZ,Douglas Police Department,31.840129,-109.775163,AZ0020500,Douglas,16470.0,3223.0,19.57
AZ,Sierra Vista Police Department,31.56594,-110.27322,AZ0020900,Sierra Vista,44944.0,4731.0,10.53
AZ,Tombstone Police Department,31.840129,-109.775163,AZ0021100,Tombstone,978.0,111.0,11.35
AZ,Willcox Police Department,32.26314,-109.82966,AZ0021300,Willcox,3240.0,618.0,19.07
AZ,Benson Police Department,31.840129,-109.775163,AZ0020100,Benson,5252.0,734.0,13.98
AZ,Clarkdale Police Department,34.630044,-112.573745,AZ0130100,Clarkdale,4419.0,423.0,9.57
AZ,Chino Valley Police Department,34.630044,-112.573745,AZ0131200,Chino Valley,12854.0,720.0,5.6
AZ,Prescott Valley Police Department,34.59638,-112.33222,AZ0131100,Prescott Valley,46014.0,5323.0,11.57
AZ,Prescott Police Department,34.630044,-112.573745,AZ0130700,Prescott,45063.0,4856.0,10.78
AZ,Jerome Police Department,34.630044,-112.573745,AZ0130500,Jerome,445.0,63.0,14.16
AZ,Cottonwood Police Department,34.735905,-112.02273,AZ0130300,Cottonwood,224.0,39.0,17.41
AZ,Camp Verde Police Department,34.630044,-112.573745,AZ0131300,Camp Verde,11942.0,2656.0,22.24
AZ,Flagstaff Police Department,35.188972,-111.64146,AZ0030100,Flagstaff,76228.0,11064.0,14.51
AZ,Fredonia Police Department,35.829692,-111.773728,AZ0030300,Fredonia,1128.0,183.0,16.22
AZ,Williams Police Department,35.252357,-112.18281,AZ0030700,Williams,3235.0,729.0,22.53
AZ,Page Police Department,35.829692,-111.773728,AZ0030800,Page,7466.0,2191.0,29.35
AZ,Clifton Police Department,33.238872,-109.242323,AZ0060100,Clifton,3903.0,276.0,7.07
AZ,Buckeye Police Department,33.375275,-112.573135,AZ0070300,Buckeye,89711.0,6900.0,7.69
AZ,Chandler Police Department,33.300625,-111.8382,AZ0070500,Chandler,272439.0,20397.0,7.49
AZ,El Mirage Police Department,33.346541,-112.495534,AZ0070700,El Mirage,35410.0,5138.0,14.51
AZ,Gilbert Police Department,33.330627,-111.78834,AZ0071100,Gilbert,262249.0,14013.0,5.34
AZ,Glendale Police Department,33.536736,-112.18246,AZ0071300,Glendale,245685.0,41884.0,17.05
AZ,Goodyear Police Department,33.490746,-112.362495,AZ0071500,Goodyear,93651.0,5701.0,6.09
AZ,Mesa Police Department,33.41802,-111.83668,AZ0071700,Mesa,1660.0,383.0,23.07
AZ,Paradise Valley Police Department,33.531094,-111.94291,AZ0071900,Paradise Valley,12666.0,515.0,4.07
AZ,Peoria Police Department,33.346541,-112.495534,AZ0072100,Peoria,187733.0,15740.0,8.38
AZ,Phoenix Police Department,33.44825,-112.0817,AZ0072300,Phoenix,1591119.0,241238.0,15.16
AZ,Scottsdale Police Department,33.5695,-111.88542,AZ0072500,Scottsdale,238685.0,15978.0,6.69
AZ,Tempe Police Department,33.346541,-112.495534,AZ0072900,Tempe,178862.0,30594.0,17.1
AZ,Tolleson Police Department,33.450283,-112.26505,AZ0073100,Tolleson,7180.0,1313.0,18.29
AZ,Surprise Police Department,33.346541,-112.495534,AZ0072700,Surprise,141875.0,10580.0,7.46
AZ,Avondale Police Department,33.346541,-112.495534,AZ0070100,Avondale,88065.0,10165.0,11.54
AZ,Nogales Police Department,31.346354,-110.930916,AZ0120100,Nogales,19829.0,5847.0,29.49
AZ,Apache Junction Police Department,33.422348,-111.543236,AZ0111300,Apache Junction,38311.0,4855.0,12.67
AZ,Sedona Police Department,34.865772,-111.81422,AZ0131400,Sedona,9723.0,1099.0,11.3
AZ,Wickenburg Police Department,33.969975,-112.731514,AZ0073300,Wickenburg,7359.0,1117.0,15.18
CA,Bishop Police Department,37.361378,-118.39636,CA0140100,Bishop,3800.0,244.0,6.42
CA,Arvin Police Department,35.346629,-118.729506,CA0150100,Arvin,19568.0,5428.0,27.74
CA,Bakersfield Police Department,35.346629,-118.729506,CA0150200,Bakersfield,585.0,174.0,29.74
CA,Delano Police Department,35.346629,-118.729506,CA0150300,Delano,52206.0,8194.0,15.7
CA,McFarland Police Department,35.67801,-119.23241,CA0150500,McFarland,14085.0,3824.0,27.15
CA,Ridgecrest Police Department,35.620674,-117.6702,CA0150600,Ridgecrest,2776.0,112.0,4.03
CA,Shafter Police Department,35.499836,-119.27048,CA0150700,Shafter,19897.0,4265.0,21.44
CA,Taft Police Department,35.134575,-119.442215,CA0150800,Taft,2377.0,987.0,41.52
CA,Tehachapi Police Department,35.13094,-118.447235,CA0150900,Tehachapi,13346.0,994.0,7.45
CA,California City Police Department,35.127663,-117.9599,CA0151100,California City,14914.0,3118.0,20.91
CA,Stallion Springs Police Department,35.082546,-118.63749,CA0151400,Stallion Springs,3018.0,108.0,3.58
CA,Bear Valley Police Department,35.134567,-118.574615,CA0151500,Bear Valley,84.0,0.0,
CA,Lakeport Police Department,39.047752,-122.91607,CA0170100,Lakeport,43.0,0.0,
CA,Clearlake Police Department,39.094802,-122.746757,CA0170200,Clearlake,16468.0,4298.0,26.1
CA,Mammoth Lakes Police Department,37.915836,-118.875167,CA0260100,Mammoth Lakes,43.0,0.0,
CA,Calistoga Police Department,38.57867,-122.57926,CA0280100,Calistoga,5267.0,377.0,7.16
CA,Napa Police Department,38.5071,-122.325905,CA0280200,Napa,79700.0,6207.0,7.79
CA,St. Helena Police Department,38.50604,-122.47157,CA0280300,St. Helena,5530.0,364.0,6.58
CA,Winters Police Department,38.521507,-121.97047,CA0570200,Winters,7138.0,600.0,8.41
CA,Davis Police Department,38.679595,-121.902444,CA0570100,Davis,67208.0,17337.0,25.8
CA,Woodland Police Department,38.679595,-121.902444,CA0570300,Woodland,60977.0,5562.0,9.12
CA,West Sacramento Police Department,38.679595,-121.902444,CA0570400,West Sacramento,53589.0,7622.0,14.22
CA,Wheatland Police Department,39.270026,-121.34428,CA0580200,Wheatland,3715.0,102.0,2.75
CA,Marysville Police Department,39.270026,-121.34428,CA0580100,Marysville,12451.0,2807.0,22.54
CA,Chico Police Department,39.735462,-121.81528,CA0040200,Chico,103898.0,21984.0,21.16
CA,Gridley Police Department,39.365505,-121.69721,CA0040300,Gridley,7510.0,762.0,10.15
CA,Oroville Police Department,39.508167,-121.554825,CA0040400,Oroville,20409.0,4038.0,19.79
CA,Paradise Police Department,39.75336,-121.62395,CA0040500,Paradise,7730.0,1193.0,15.43
CA,Orland Police Department,39.602546,-122.4017,CA0110100,Orland,8168.0,1172.0,14.35
CA,Corcoran Police Department,36.099304,-119.55968,CA0160100,Corcoran,22616.0,3718.0,16.44
CA,Hanford Police Department,36.329308,-119.64769,CA0160200,Hanford,4327.0,1710.0,39.52
CA,Lemoore Police Department,36.307163,-119.78825,CA0160300,Lemoore,26631.0,3383.0,12.7
CA,Belvedere Police Department,37.874096,-122.46572,CA0210100,Belvedere,2309.0,133.0,5.76
CA,Fairfax Police Department,37.98493,-122.59092,CA0210300,Fairfax,1986.0,732.0,36.86
CA,Mill Valley Police Department,37.90565,-122.57148,CA0210500,Mill Valley,14240.0,780.0,5.48
CA,Novato Police Department,38.106064,-122.56927,CA0210600,Novato,53214.0,4195.0,7.88
CA,Ross Police Department,38.051817,-122.745974,CA0210700,Ross,2405.0,83.0,3.45
CA,San Rafael Police Department,38.051817,-122.745974,CA0210900,San Rafael,61158.0,5457.0,8.92
CA,Sausalito Police Department,37.858112,-122.484436,CA0211000,Sausalito,7260.0,528.0,7.27
CA,Tiburon Police Department,37.880222,-122.46468,CA0211100,Tiburon,9146.0,122.0,1.33
CA,Alturas Police Department,41.483387,-120.54352,CA0250100,Alturas,2693.0,462.0,17.16
CA,Ione Police Department,38.44355,-120.653856,CA0030200,Ione,5462.0,446.0,8.17
CA,Jackson Police Department,38.347904,-120.77274,CA0030300,Jackson,4958.0,393.0,7.93
CA,Sutter Creek Police Department,38.391117,-120.80235,CA0030500,Sutter Creek,2778.0,146.0,5.26
CA,Colusa Police Department,39.21383,-122.009544,CA0060100,Colusa,6359.0,870.0,13.68
CA,Williams Police Department,39.177739,-122.237563,CA0060200,Williams,5520.0,555.0,10.05
CA,Clovis Police Department,36.82397,-119.692795,CA0100100,Clovis,118488.0,9558.0,8.07
CA,Coalinga Police Department,36.139175,-120.362045,CA0100200,Coalinga,17560.0,2245.0,12.78
CA,Firebaugh Police Department,36.761006,-119.655019,CA0100300,Firebaugh,8040.0,2632.0,32.74
CA,Fowler Police Department,36.630894,-119.67752,CA0100400,Fowler,6675.0,1351.0,20.24
CA,Fresno Police Department,36.761006,-119.655019,CA0100500,Fresno,538678.0,121232.0,22.51
CA,Huron Police Department,36.761006,-119.655019,CA0100600,Huron,6277.0,2532.0,40.34
CA,Kerman Police Department,36.722088,-120.06027,CA0100700,Kerman,15817.0,2495.0,15.77
CA,Kingsburg Police Department,36.761006,-119.655019,CA0100800,Kingsburg,12413.0,1040.0,8.38
CA,Mendota Police Department,36.759174,-120.373276,CA0100900,Mendota,12534.0,4666.0,37.23
CA,Orange Cove Police Department,36.761006,-119.655019,CA0101000,Orange Cove,9680.0,4716.0,48.72
CA,Parlier Police Department,36.761006,-119.655019,CA0101100,Parlier,14666.0,4423.0,30.16
CA,Reedley Police Department,36.598927,-119.453575,CA0101200,Reedley,25168.0,4542.0,18.05
CA,Sanger Police Department,36.70591,-119.56111,CA0101300,Sanger,26424.0,4581.0,17.34
CA,Selma Police Department,36.567337,-119.611984,CA0101500,Selma,24545.0,5702.0,23.23
CA,Susanville Police Department,40.415127,-120.64738,CA0180100,Susanville,16305.0,1342.0,8.23
CA,Chowchilla Police Department,37.122593,-120.25846,CA0200100,Chowchilla,18826.0,1879.0,9.98
CA,Madera Police Department,37.210039,-119.749852,CA0200200,Madera,10145.0,501.0,4.94
CA,Atwater Police Department,37.36044,-120.600685,CA0240100,Atwater,31401.0,5357.0,17.06
CA,Dos Palos Police Department,36.98548,-120.62781,CA0240200,Dos Palos,5651.0,636.0,11.25
CA,Gustine Police Department,37.194806,-120.722802,CA0240300,Gustine,5990.0,499.0,8.33
CA,Livingston Police Department,37.385117,-120.72305,CA0240400,Livingston,14078.0,2621.0,18.62
CA,Los Banos Police Department,37.061142,-120.849655,CA0240500,Los Banos,44421.0,6100.0,13.73
CA,Merced Police Department,37.307243,-120.48267,CA0240600,Merced,85993.0,22626.0,26.31
CA,Grass Valley Police Department,39.218174,-121.06191,CA0290100,Grass Valley,13550.0,2036.0,15.03
CA,Nevada City Police Department,39.262844,-121.01968,CA0290200,Nevada City,3097.0,462.0,14.92
CA,Truckee Police Department,39.295191,-120.773446,CA0290800,Truckee,16850.0,1678.0,9.96
CA,Anaheim Police Department,33.675687,-117.777207,CA0300100,Anaheim,348204.0,44908.0,12.9
CA,Brea Police Department,33.917824,-117.889275,CA0300200,Brea,46912.0,3032.0,6.46
CA,Buena Park Police Department,33.86387,-117.99804,CA0300300,Buena Park,83974.0,8178.0,9.74
CA,Costa Mesa Police Department,33.675687,-117.777207,CA0300400,Costa Mesa,112148.0,10708.0,9.55
CA,Cypress Police Department,33.675687,-117.777207,CA0300500,Cypress,50279.0,3660.0,7.28
CA,La Palma Police Department,33.849407,-118.03725,CA0300600,La Palma,15650.0,994.0,6.35
CA,Fountain Valley Police Department,33.70901,-117.95065,CA0300700,Fountain Valley,57139.0,4715.0,8.25
CA,Fullerton Police Department,33.870346,-117.92736,CA0300800,Fullerton,142964.0,17534.0,12.26
CA,Garden Grove Police Department,33.675687,-117.777207,CA0300900,Garden Grove,172708.0,22837.0,13.22
CA,Huntington Beach Police Department,33.675687,-117.777207,CA0301000,Huntington Beach,198735.0,15515.0,7.81
CA,Laguna Beach Police Department,33.545933,-117.78176,CA0301100,Laguna Beach,23121.0,1314.0,5.68
CA,La Habra Police Department,33.93234,-117.946106,CA0301200,La Habra,63287.0,6545.0,10.34
CA,Los Alamitos Police Department,33.803204,-118.07573,CA0301300,Los Alamitos,11780.0,1189.0,10.09
CA,Newport Beach Police Department,33.675687,-117.777207,CA0301400,Newport Beach,85806.0,5868.0,6.84
CA,Orange Police Department,33.808765,-117.8617,CA0301500,Orange,139195.0,13600.0,9.77
CA,Placentia Police Department,33.871143,-117.86279,CA0301600,Placentia,51951.0,3706.0,7.13
CA,San Clemente Police Department,33.675687,-117.777207,CA0301700,San Clemente,64600.0,3416.0,5.29
CA,San Juan Capistrano Police Department,33.675687,-117.777207,CA0301800,San Juan Capistrano,35319.0,2296.0,6.5
CA,Santa Ana Police Department,33.675687,-117.777207,CA0301900,Santa Ana,313818.0,37979.0,12.1
CA,Seal Beach Police Department,33.675687,-117.777207,CA0302000,Seal Beach,25216.0,1432.0,5.68
CA,Stanton Police Department,33.675687,-117.777207,CA0302100,Stanton,38167.0,5280.0,13.83
CA,Tustin Police Department,33.743816,-117.81884,CA0302200,Tustin,25708.0,882.0,3.43
CA,Villa Park Police Department,33.675687,-117.777207,CA0302300,Villa Park,5864.0,444.0,7.57
CA,Westminster Police Department,33.75929,-117.986336,CA0302400,Westminster,91267.0,14413.0,15.79
CA,Yorba Linda Police Department,33.917824,-117.889275,CA0302500,Yorba Linda,23304.0,5193.0,22.28
CA,Irvine Police Department,33.675687,-117.777207,CA0302600,Irvine,297868.0,35443.0,11.9
CA,Lincoln Police Department,38.894478,-121.2937,CA0310300,Lincoln,49203.0,3341.0,6.79
CA,Auburn Police Department,38.89784,-121.074745,CA0310100,Auburn,13738.0,1752.0,12.75
CA,Rocklin Police Department,38.790062,-121.23455,CA0310400,Rocklin,70317.0,3187.0,4.53
CA,Roseville Police Department,38.760094,-121.2959,CA0310500,Roseville,145687.0,10100.0,6.93
CA,Anderson Police Department,40.453262,-122.298325,CA0450100,Anderson,11208.0,2186.0,19.5
CA,Redding Police Department,40.585827,-122.39283,CA0450200,Redding,93251.0,13750.0,14.75
CA,Benicia Police Department,38.05287,-122.153496,CA0480100,Benicia,27191.0,1382.0,5.08
CA,Dixon Police Department,38.44554,-121.82381,CA0480200,Dixon,19038.0,1264.0,6.64
CA,Fairfield Police Department,38.251545,-122.04343,CA0480300,Fairfield,118932.0,10366.0,8.72
CA,Rio Vista Police Department,38.15519,-121.689926,CA0480400,Rio Vista,9850.0,1059.0,10.75
CA,Suisun City Police Department,38.239162,-122.036934,CA0480500,Suisun City,29436.0,2874.0,9.76
CA,Vacaville Police Department,38.35016,-121.99458,CA0480600,Vacaville,102256.0,6500.0,6.36
CA,Vallejo Police Department,38.267226,-121.939594,CA0480700,Vallejo,125350.0,13610.0,10.86
CA,Cloverdale Police Department,38.806206,-123.01682,CA0490100,Cloverdale,9023.0,821.0,9.1
CA,Cotati Police Department,38.323624,-122.70799,CA0490200,Cotati,7603.0,759.0,9.98
CA,Healdsburg Police Department,38.609367,-122.86905,CA0490300,Healdsburg,11439.0,1134.0,9.91
CA,Rohnert Park Police Department,38.525026,-122.937605,CA0490400,Rohnert Park,44420.0,4598.0,10.35
CA,Santa Rosa Police Department,38.525026,-122.937605,CA0490500,Santa Rosa,179213.0,17335.0,9.67
CA,Sebastopol Police Department,38.525026,-122.937605,CA0490600,Sebastopol,7563.0,608.0,8.04
CA,Sonoma Police Department,38.29818,-122.45794,CA0490700,Sonoma,72.0,4.0,5.56
CA,Petaluma Police Department,38.245697,-122.64498,CA0490800,Petaluma,60050.0,3532.0,5.88
CA,Yuba City Police Department,39.144726,-121.641426,CA0510200,Yuba City,69540.0,8938.0,12.85
CA,Red Bluff Police Department,40.175694,-122.23484,CA0520200,Red Bluff,14557.0,3806.0,26.15
CA,Corning Police Department,39.928185,-122.179276,CA0520100,Corning,8156.0,687.0,8.42
CA,Woodlake Police Department,36.418293,-119.09891,CA0540800,Woodlake,43.0,0.0,
CA,Visalia Police Department,36.32839,-119.29881,CA0540700,Visalia,140109.0,18607.0,13.28
CA,Tulare Police Department,36.207127,-119.34315,CA0540600,Tulare,692.0,167.0,24.13
CA,Porterville Police Department,36.072,-119.01828,CA0540500,Porterville,5651.0,2309.0,40.86
CA,Lindsay Police Department,36.228824,-118.781061,CA0540400,Lindsay,12551.0,3673.0,29.26
CA,Farmersville Police Department,36.29776,-119.19875,CA0540300,Farmersville,10441.0,2543.0,24.36
CA,Exeter Police Department,36.297142,-119.138405,CA0540200,Exeter,10349.0,2264.0,21.88
CA,Dinuba Police Department,36.55121,-119.39516,CA0540100,Dinuba,24383.0,7739.0,31.74
CA,Dublin Police Department,37.799427,-122.262505,CA001300X,Dublin,69818.0,2501.0,3.58
CA,San Leandro Police Department,37.648134,-121.913291,CA0011200,San Leandro,91176.0,8465.0,9.28
CA,Union City Police Department,37.58882,-122.02747,CA0011300,Union City,70828.0,3871.0,5.47
CA,Pleasanton Police Department,37.648134,-121.913291,CA0011100,Pleasanton,79558.0,3834.0,4.82
CA,Piedmont Police Department,37.824814,-122.23214,CA0011000,Piedmont,11368.0,484.0,4.26
CA,Oakland Police Department,37.79965,-122.27459,CA0010900,Oakland,437548.0,58518.0,13.37
CA,Newark Police Department,37.536236,-122.02951,CA0010800,Newark,47815.0,2043.0,4.27
CA,Livermore Police Department,37.674633,-121.756935,CA0010700,Livermore,88403.0,3502.0,3.96
CA,Hayward Police Department,37.662106,-122.08672,CA0010600,Hayward,162254.0,12705.0,7.83
CA,Fremont Police Department,37.553017,-121.97069,CA0010500,Fremont,231502.0,11235.0,4.85
CA,Emeryville Police Department,37.648134,-121.913291,CA0010400,Emeryville,12747.0,1719.0,13.49
CA,Berkeley Police Department,37.870537,-122.27298,CA0010300,Berkeley,119607.0,18762.0,15.69
CA,Albany Police Department,37.887703,-122.29825,CA0010200,Albany,19958.0,1620.0,8.12
CA,Alameda Police Department,37.766888,-122.24273,CA0010100,Alameda,78320.0,5244.0,6.7
CA,Ventura Police Department,34.26,-119.2226,CA0560800,Ventura,110572.0,10404.0,9.41
CA,Simi Valley Police Department,34.286324,-118.72261,CA0560900,Simi Valley,126809.0,9678.0,7.63
CA,Camarillo Police Department,34.26795,-119.212875,CA0560100,Camarillo,70593.0,5292.0,7.5
CA,Fillmore Police Department,34.26795,-119.212875,CA0560200,Fillmore,16373.0,1078.0,6.58
CA,Ojai Police Department,34.26795,-119.212875,CA0560300,Ojai,7640.0,571.0,7.47
CA,Oxnard Police Department,34.200966,-119.181076,CA0560400,Oxnard,202981.0,21244.0,10.47
CA,Port Hueneme Police Department,34.14973,-119.19544,CA0560500,Port Hueneme,21954.0,2657.0,12.1
CA,Santa Paula Police Department,34.35691,-119.06136,CA0560600,Santa Paula,30741.0,5210.0,16.95
CA,Thousand Oaks Police Department,34.26795,-119.212875,CA0560700,Thousand Oaks,127274.0,8331.0,6.55
CA,Arcata Police Department,40.867355,-124.085144,CA0120100,Arcata,19038.0,6023.0,31.64
CA,Eureka Police Department,40.80052,-124.16893,CA0120300,Eureka,26763.0,5125.0,19.15
CA,Ferndale Police Department,40.706673,-123.925818,CA0120400,Ferndale,1481.0,236.0,15.94
CA,Fortuna Police Department,40.597363,-124.155525,CA0120500,Fortuna,12480.0,1820.0,14.58
CA,Rio Dell Police Department,40.497326,-124.105644,CA0120700,Rio Dell,3385.0,368.0,10.87
CA,Brawley Police Department,32.978657,-115.53716,CA0130100,Brawley,26431.0,6793.0,25.7
CA,Calexico Police Department,32.669827,-115.49314,CA0130200,Calexico,38798.0,8112.0,20.91
CA,Calipatria Police Department,33.040816,-115.355395,CA0130300,Calipatria,7247.0,899.0,12.41
CA,El Centro Police Department,32.793327,-115.56443,CA0130400,El Centro,44322.0,10394.0,23.45
CA,Holtville Police Department,32.81098,-115.379875,CA0130500,Holtville,5672.0,1249.0,22.02
CA,Imperial Police Department,32.844448,-115.569954,CA0130600,Imperial,19982.0,1838.0,9.2
CA,Westmorland Police Department,33.040816,-115.355395,CA0130700,Westmorland,2289.0,909.0,39.71
CA,Del Rey Oaks Police Department,36.592197,-121.833786,CA0270200,Del Rey Oaks,1413.0,460.0,32.55
CA,Gonzales Police Department,36.240107,-121.315573,CA0270300,Gonzales,8628.0,696.0,8.07
CA,Greenfield Police Department,36.32111,-121.2436,CA0270400,Greenfield,3836.0,436.0,11.37
CA,King City Police Department,36.211166,-121.12721,CA0270500,King City,13419.0,2183.0,16.27
CA,Monterey Police Department,36.596924,-121.89759,CA0270600,Monterey,30014.0,3293.0,10.97
CA,Pacific Grove Police Department,36.618847,-121.91879,CA0270700,Pacific Grove,15169.0,843.0,5.56
CA,Salinas Police Department,36.674767,-121.65718,CA0270800,Salinas,163004.0,23173.0,14.22
CA,Sand City Police Department,36.61363,-121.84962,CA0270900,Sand City,348.0,37.0,10.63
CA,Seaside Police Department,36.604176,-121.85408,CA0271000,Seaside,32631.0,3875.0,11.88
CA,Soledad Police Department,36.240107,-121.315573,CA0271100,Soledad,25102.0,3322.0,13.23
CA,Marina Police Department,36.68176,-121.80256,CA0271200,Marina,22246.0,2149.0,9.66
CA,Carmel Police Department,36.240107,-121.315573,CA0270100,Carmel,3296.0,38.0,1.15
CA,Yreka Police Department,41.732212,-122.638565,CA0470900,Yreka,7807.0,1607.0,20.58
CA,Lake Shastina Police Department,41.587986,-122.533287,CA0471000,Lake Shastina,43.0,0.0,
CA,Weed Police Department,41.587986,-122.533287,CA0470800,Weed,2870.0,925.0,32.23
CA,Tulelake Police Department,41.587986,-122.533287,CA0470700,Tulelake,43.0,0.0,
CA,Mount Shasta Police Department,41.313313,-122.31235,CA0470600,Mount Shasta,3247.0,528.0,16.26
CA,Montague Police Department,41.587986,-122.533287,CA0470500,Montague,1446.0,289.0,19.99
CA,Fort Jones Police Department,41.72972,-122.63826,CA0470400,Fort Jones,647.0,191.0,29.52
CA,Etna Police Department,41.587986,-122.533287,CA0470300,Etna,753.0,113.0,15.01
CA,Dunsmuir Police Department,41.587986,-122.533287,CA0470200,Dunsmuir,1826.0,285.0,15.61
CA,Dorris Police Department,41.72972,-122.63826,CA0470100,Dorris,875.0,173.0,19.77
CA,Sonora Police Department,37.98655,-120.38485,CA0550100,Sonora,2654.0,122.0,4.6
CA,Crescent City Police Department,41.754265,-124.20122,CA0080100,Crescent City,6686.0,1130.0,16.9
CA,Placerville Police Department,38.73032,-120.79018,CA0090100,Placerville,10777.0,1355.0,12.57
CA,South Lake Tahoe Police Department,38.933025,-119.97075,CA0090200,South Lake Tahoe,43.0,0.0,
CA,Fort Bragg Police Department,39.432667,-123.80412,CA0230100,Fort Bragg,7049.0,1293.0,18.34
CA,Ukiah Police Department,39.432388,-123.442881,CA0230300,Ukiah,16728.0,2922.0,17.47
CA,Willits Police Department,39.41243,-123.35326,CA0230400,Willits,5008.0,1138.0,22.72
CA,Wildomar Police Department,33.66725,-117.331665,CA033770X,Wildomar,36511.0,3516.0,9.63
CA,Eastvale Police Department,34.01191,-117.448814,CA033790X,Eastvale,68539.0,2910.0,4.25
CA,Jurupa Valley Police Department,34.01191,-117.448814,CA033A000,Jurupa Valley,104684.0,12077.0,11.54
CA,Palm Springs Police Department,33.729828,-116.002239,CA0331100,Palm Springs,44799.0,6464.0,14.43
CA,Norco Police Department,33.978046,-117.37402,CA0331000,Norco,26176.0,1067.0,4.08
CA,Indio Police Department,33.70857,-116.21641,CA0330900,Indio,88542.0,12751.0,14.4
CA,Hemet Police Department,33.74941,-116.96785,CA0330800,Hemet,19998.0,4232.0,21.16
CA,Desert Hot Springs Police Department,33.729828,-116.002239,CA0330600,Desert Hot Springs,31988.0,8402.0,26.27
CA,Coachella Police Department,33.978046,-117.37402,CA0330500,Coachella,42123.0,6111.0,14.51
CA,Blythe Police Department,33.612965,-114.59825,CA0330300,Blythe,18125.0,2501.0,13.8
CA,Beaumont Police Department,33.92942,-116.97506,CA0330200,Beaumont,52081.0,4572.0,8.78
CA,Banning Police Department,33.729828,-116.002239,CA0330100,Banning,29664.0,5606.0,18.9
CA,Perris Police Department,33.787678,-117.226135,CA0331200,Perris,78106.0,9383.0,12.01
CA,Cathedral City Police Department,33.729828,-116.002239,CA0332500,Cathedral City,51836.0,9724.0,18.76
CA,Lake Elsinore Police Department,33.978046,-117.37402,CA033300X,Lake Elsinore,43.0,0.0,
CA,La Quinta Police Department,33.978046,-117.37402,CA033310X,La Quinta,37846.0,4138.0,10.93
CA,Temecula Police Department,33.978046,-117.37402,CA033380X,Temecula,109376.0,8391.0,7.67
CA,Calimesa Police Department,33.978046,-117.37402,CA033400X,Calimesa,10053.0,888.0,8.83
CA,Canyon Lake Police Department,33.671688,-117.26131,CA033410X,Canyon Lake,11071.0,711.0,6.42
CA,Murrieta Police Department,33.559948,-117.209175,CA0334200,Murrieta,111096.0,6728.0,6.06
CA,Riverside Police Department,33.978416,-117.37522,CA0331300,Riverside,1086.0,47.0,4.33
CA,San Jacinto Police Department,33.782,-116.95954,CA0331400,San Jacinto,53299.0,9574.0,17.96
CA,Corona Police Department,33.729828,-116.002239,CA0331500,Corona,157844.0,14207.0,9.0
CA,Indian Wells Police Department,33.978046,-117.37402,CA0331600,Indian Wells,4827.0,286.0,5.93
CA,Rancho Mirage Police Department,33.978046,-117.37402,CA0331700,Rancho Mirage,17129.0,1924.0,11.23
CA,Palm Desert Police Department,33.978046,-117.37402,CA0331800,Palm Desert,51081.0,6961.0,13.63
CA,Lemon Grove Police Department,32.740322,-117.03116,CA037A100,Lemon Grove,27513.0,2389.0,8.68
CA,San Marcos Police Department,33.14137,-117.14562,CA0371200,San Marcos,4127.0,273.0,6.61
CA,Vista Police Department,33.192047,-117.25364,CA0371300,Vista,3610.0,169.0,4.68
CA,San Diego Police Department,32.71573,-117.151886,CA0371100,San Diego,22019.0,1224.0,5.56
CA,Santee Police Department,33.023604,-116.776117,CA037A200,Santee,59679.0,4647.0,7.79
CA,Poway Police Department,32.955612,-117.04518,CA037A300,Poway,49005.0,2492.0,5.09
CA,Encinitas Police Department,33.04468,-117.25954,CA037A400,Encinitas,62140.0,4117.0,6.63
CA,Solana Beach Police Department,33.04468,-117.25954,CA037A500,Solana Beach,13025.0,612.0,4.7
CA,Oceanside Police Department,33.023604,-116.776117,CA0371000,Oceanside,174461.0,16404.0,9.4
CA,National City Police Department,32.67233,-117.10557,CA0370900,National City,56846.0,8463.0,14.89
CA,La Mesa Police Department,32.767647,-117.02352,CA0370800,La Mesa,61040.0,7140.0,11.7
CA,Imperial Beach Police Department,32.57655,-117.11539,CA0370700,Imperial Beach,26375.0,3524.0,13.36
CA,Escondido Police Department,33.13591,-117.09332,CA0370600,Escondido,151443.0,19583.0,12.93
CA,El Cajon Police Department,32.807697,-116.96212,CA0370500,El Cajon,106043.0,20002.0,18.86
CA,Del Mar Police Department,33.04468,-117.25954,CA0370400,Del Mar,4008.0,46.0,1.15
CA,Coronado Police Department,32.690113,-117.177414,CA0370300,Coronado,20627.0,957.0,4.64
CA,Chula Vista Police Department,33.023604,-116.776117,CA0370200,Chula Vista,274818.0,24883.0,9.05
CA,Carlsbad Police Department,33.137352,-117.265976,CA0370100,Carlsbad,114858.0,8337.0,7.26
CA,San Bruno Police Department,37.639008,-122.41736,CA0411400,San Bruno,43775.0,2337.0,5.34
CA,Atherton Police Department,37.46327,-122.19748,CA0410100,Atherton,7181.0,225.0,3.13
CA,Belmont Police Department,37.516838,-122.279594,CA0410200,Belmont,28109.0,1624.0,5.78
CA,Brisbane Police Department,37.687454,-122.40451,CA0410300,Brisbane,4803.0,295.0,6.14
CA,Burlingame Police Department,37.595444,-122.38218,CA0410400,Burlingame,31142.0,1297.0,4.16
CA,Colma Police Department,37.67692,-122.458595,CA0410500,Colma,1353.0,116.0,8.57
CA,Daly City Police Department,37.691093,-122.472984,CA0410600,Daly City,104914.0,7070.0,6.74
CA,Hillsborough Police Department,37.57814,-122.35546,CA0410800,Hillsborough,11390.0,269.0,2.36
CA,Menlo Park Police Department,37.45417,-122.17698,CA0410900,Menlo Park,33677.0,1935.0,5.75
CA,Pacifica Police Department,37.414663,-122.371545,CA0411100,Pacifica,38595.0,2044.0,5.3
CA,Redwood City Police Department,37.49354,-122.21956,CA0411300,Redwood City,83905.0,5895.0,7.03
CA,San Mateo Police Department,37.551094,-122.30515,CA0411600,San Mateo,105087.0,7366.0,7.01
CA,South San Francisco Police Department,37.6558,-122.43701,CA0411700,South San Francisco,66331.0,4136.0,6.24
CA,Broadmoor Police Department,37.414663,-122.371545,CA0411900,Broadmoor,4487.0,83.0,1.85
CA,Foster City Police Department,37.55951,-122.27061,CA0412000,Foster City,33511.0,1158.0,3.46
CA,East Palo Alto Police Department,37.472054,-122.139496,CA0412700,East Palo Alto,900.0,16.0,1.78
CA,Rancho Cordova Police Department,38.584633,-121.4959,CA034550X,Rancho Cordova,78358.0,8754.0,11.17
CA,Citrus Heights Police Department,38.679226,-121.298195,CA0349600,Citrus Heights,10626.0,1078.0,10.14
CA,Isleton Police Department,38.450011,-121.340441,CA0340300,Isleton,520.0,105.0,20.19
CA,Galt Police Department,38.26226,-121.30619,CA0340200,Galt,25385.0,2318.0,9.13
CA,Folsom Police Department,38.681313,-121.1638,CA0340100,Folsom,79201.0,3680.0,4.65
CA,Sacramento Police Department,38.520615,-121.49856,CA0340400,Sacramento,518605.0,75670.0,14.59
CA,Elk Grove Police Department,38.450011,-121.340441,CA0340H00,Elk Grove,175510.0,14759.0,8.41
CA,Hollister Police Department,36.89229,-121.39484,CA0350100,Hollister,41077.0,3774.0,9.19
CA,Capitola Police Department,36.974045,-121.95333,CA0440100,Capitola,10041.0,1434.0,14.28
CA,Watsonville Police Department,37.012488,-122.007205,CA0440300,Watsonville,52966.0,6772.0,12.79
CA,Santa Cruz Police Department,36.96701,-122.026955,CA0440200,Santa Cruz,62714.0,9861.0,15.72
CA,Scotts Valley Police Department,37.049614,-122.017624,CA0440400,Scotts Valley,12317.0,509.0,4.13
CA,Newman Police Department,37.562384,-121.002656,CA0500300,Newman,12154.0,934.0,7.68
CA,Patterson Police Department,37.470737,-121.13036,CA0500500,Patterson,23517.0,1531.0,6.51
CA,Riverbank Police Department,37.7363,-120.93573,CA0500600,Riverbank,24714.0,3513.0,14.21
CA,Turlock Police Department,37.562384,-121.002656,CA0500700,Turlock,72494.0,10496.0,14.48
CA,Waterford Police Department,37.562384,-121.002656,CA0500800,Waterford,4327.0,1710.0,39.52
CA,Hughson Police Department,37.562384,-121.002656,CA0500900,Hughson,7425.0,1140.0,15.35
CA,Ceres Police Department,37.592953,-120.95455,CA0500100,Ceres,49132.0,7753.0,15.78
CA,Modesto Police Department,37.636703,-120.99575,CA0500200,Modesto,217728.0,27587.0,12.67
CA,Oakdale Police Department,37.76764,-120.84985,CA0500400,Oakdale,2358.0,169.0,7.17
CA,Alhambra Police Department,34.092934,-118.12671,CA0190100,Alhambra,83174.0,10498.0,12.62
CA,Arcadia Police Department,34.138,-118.03953,CA0190200,Arcadia,56697.0,5030.0,8.87
CA,Artesia Police Department,34.06067,-118.167885,CA0190300,Artesia,16390.0,1071.0,6.53
CA,Avalon Police Department,34.06067,-118.167885,CA0190400,Avalon,3514.0,488.0,13.89
CA,Azusa Police Department,34.13403,-117.90616,CA0190500,Azusa,49457.0,6476.0,13.09
CA,Baldwin Park Police Department,34.085308,-117.96031,CA0190600,Baldwin Park,72813.0,9445.0,12.97
CA,Bell Police Department,33.979942,-118.18879,CA0190700,Bell,33915.0,7877.0,23.23
CA,Bellflower Police Department,34.06067,-118.167885,CA0190800,Bellflower,79070.0,10003.0,12.65
CA,Bell Gardens Police Department,33.967304,-118.15043,CA0190900,Bell Gardens,39870.0,10097.0,25.32
CA,La Habra Heights Police Department,34.06067,-118.167885,CA0190D0X,La Habra Heights,5651.0,133.0,2.35
CA,Westlake Village Police Department,34.06067,-118.167885,CA0190X0X,Westlake Village,43.0,0.0,
CA,Beverly Hills Police Department,34.073654,-118.40051,CA0191000,Beverly Hills,32903.0,3339.0,10.15
CA,Bradbury Police Department,34.06067,-118.167885,CA0191100,Bradbury,760.0,48.0,6.32
CA,Burbank Police Department,34.196398,-118.261862,CA0191200,Burbank,107364.0,11604.0,10.81
CA,Claremont Police Department,34.0965,-117.72234,CA0191300,Claremont,36312.0,1480.0,4.08
CA,Commerce Police Department,34.06067,-118.167885,CA0191400,Commerce,12459.0,1821.0,14.62
CA,Compton Police Department,34.196398,-118.261862,CA0191500,Compton,96083.0,16622.0,17.3
CA,Covina Police Department,34.08973,-117.890114,CA0191600,Covina,51061.0,4572.0,8.95
CA,Cudahy Police Department,33.98755,-118.189354,CA0191700,Cudahy,23003.0,6678.0,29.03
CA,Culver City Police Department,34.0207,-118.39563,CA0191800,Culver City,40640.0,2459.0,6.05
CA,Cerritos Police Department,34.06067,-118.167885,CA0191900,Cerritos,49630.0,2374.0,4.78
CA,Agoura Hills Police Department,34.06067,-118.167885,CA0191F00,Agoura Hills,20362.0,720.0,3.54
CA,West Hollywood Police Department,34.083508,-118.38372,CA0191H0X,West Hollywood,35678.0,4242.0,11.89
CA,Santa Clarita Police Department,34.06067,-118.167885,CA0191R0X,Santa Clarita,227182.0,18588.0,8.18
CA,Diamond Bar Police Department,34.06067,-118.167885,CA0191W0X,Diamond Bar,55339.0,4340.0,7.84
CA,Downey Police Department,34.196398,-118.261862,CA0192000,Downey,114293.0,10479.0,9.17
CA,Duarte Police Department,34.06067,-118.167885,CA0192100,Duarte,21723.0,1968.0,9.06
CA,El Monte Police Department,34.196398,-118.261862,CA0192200,El Monte,3604.0,138.0,3.83
CA,El Segundo Police Department,33.919888,-118.41592,CA0192300,El Segundo,17243.0,772.0,4.48
CA,Gardena Police Department,34.196398,-118.261862,CA0192400,Gardena,60917.0,7377.0,12.11
CA,Glendale Police Department,34.14695,-118.24886,CA0192500,Glendale,196512.0,27065.0,13.77
CA,Glendora Police Department,34.135105,-117.86546,CA0192600,Glendora,52458.0,3897.0,7.43
CA,Hawaiian Gardens Police Department,34.196398,-118.261862,CA0192700,Hawaiian Gardens,14178.0,2423.0,17.09
CA,Hawthorne Police Department,33.919025,-118.35244,CA0192800,Hawthorne,87863.0,13978.0,15.91
CA,Hermosa Beach Police Department,34.196398,-118.261862,CA0192900,Hermosa Beach,19787.0,893.0,4.51
CA,Calabasas Police Department,34.06067,-118.167885,CA0192H0X,Calabasas,23410.0,2189.0,9.35
CA,Malibu Police Department,34.06067,-118.167885,CA0192J0X,Malibu,10915.0,942.0,8.63
CA,Hidden Hills Police Department,34.06067,-118.167885,CA0193000,Hidden Hills,2182.0,185.0,8.48
CA,Huntington Park Police Department,33.979866,-118.219055,CA0193100,Huntington Park,55439.0,10981.0,19.81
CA,Industry Police Department,34.06067,-118.167885,CA0193200,Industry,244.0,18.0,7.38
CA,Inglewood Police Department,34.196398,-118.261862,CA0193300,Inglewood,108206.0,15916.0,14.71
CA,Irwindale Police Department,34.10423,-117.934135,CA0193400,Irwindale,1359.0,121.0,8.9
CA,Lakewood Police Department,34.06067,-118.167885,CA0193500,Lakewood,43.0,0.0,
CA,La Mirada Police Department,34.196398,-118.261862,CA0193600,La Mirada,47957.0,2498.0,5.21
CA,La Puente Police Department,34.06067,-118.167885,CA0193700,La Puente,38447.0,3594.0,9.35
CA,La Verne Police Department,34.196398,-118.261862,CA0193800,La Verne,31423.0,2610.0,8.31
CA,Lawndale Police Department,34.06067,-118.167885,CA0193900,Lawndale,32035.0,3096.0,9.66
CA,Lomita Police Department,34.06067,-118.167885,CA0194000,Lomita,20884.0,2437.0,11.67
CA,Long Beach Police Department,34.196398,-118.261862,CA0194100,Long Beach,466565.0,70975.0,15.21
CA,Los Angeles Police Department,34.196398,-118.261862,CA0194200,Los Angeles,118964.0,21100.0,17.74
CA,Lynwood Police Department,34.06067,-118.167885,CA0194300,Lynwood,67497.0,10684.0,15.83
CA,Manhattan Beach Police Department,33.887936,-118.41001,CA0194400,Manhattan Beach,35585.0,1094.0,3.07
CA,Maywood Police Department,33.987534,-118.18923,CA0194500,Maywood,25477.0,5274.0,20.7
CA,Monrovia Police Department,34.148067,-118.00008,CA0194600,Monrovia,37999.0,3466.0,9.12
CA,Montebello Police Department,34.019287,-118.11615,CA0194700,Montebello,62828.0,7099.0,11.3
CA,Monterey Park Police Department,34.05978,-118.12597,CA0194800,Monterey Park,61153.0,6930.0,11.33
CA,Norwalk Police Department,34.06067,-118.167885,CA0194900,Norwalk,103330.0,9056.0,8.76
CA,Palmdale Police Department,34.06067,-118.167885,CA0195000,Palmdale,167987.0,26322.0,15.67
CA,Palos Verdes Estates Police Department,34.196398,-118.261862,CA0195100,Palos Verdes Estates,13403.0,579.0,4.32
CA,Paramount Police Department,34.06067,-118.167885,CA0195200,Paramount,53904.0,7704.0,14.29
CA,Pasadena Police Department,34.149437,-118.1443,CA0195300,Pasadena,5829.0,336.0,5.76
CA,Pico Rivera Police Department,34.06067,-118.167885,CA0195400,Pico Rivera,62383.0,6143.0,9.85
CA,Pomona Police Department,34.05499,-117.75431,CA0195500,Pomona,151592.0,24197.0,15.96
CA,Redondo Beach Police Department,33.844234,-118.38821,CA0195600,Redondo Beach,70998.0,3649.0,5.14
CA,Rolling Hills Police Department,34.06067,-118.167885,CA0195700,Rolling Hills,1436.0,43.0,2.99
CA,Rolling Hills Estates Police Department,34.06067,-118.167885,CA0195800,Rolling Hills Estates,669.0,34.0,5.08
CA,Rosemead Police Department,34.06067,-118.167885,CA0195900,Rosemead,51698.0,6413.0,12.4
CA,San Dimas Police Department,34.06067,-118.167885,CA0196000,San Dimas,34775.0,2980.0,8.57
CA,San Fernando Police Department,34.283566,-118.43928,CA0196100,San Fernando,24086.0,2408.0,10.0
CA,San Gabriel Police Department,34.196398,-118.261862,CA0196200,San Gabriel,22941.0,2138.0,9.32
CA,San Marino Police Department,34.121788,-118.106316,CA0196300,San Marino,3094.0,347.0,11.22
CA,Santa Fe Springs Police Department,33.974472,-118.03265,CA0196400,Santa Fe Springs,18817.0,2155.0,11.45
CA,Santa Monica Police Department,34.01294,-118.49036,CA0196500,Santa Monica,92828.0,9721.0,10.47
CA,Sierra Madre Police Department,34.161842,-118.05774,CA0196600,Sierra Madre,146.0,0.0,
CA,Signal Hill Police Department,33.7971,-118.16873,CA0196700,Signal Hill,11780.0,1820.0,15.45
CA,South El Monte Police Department,34.06067,-118.167885,CA0196800,South El Monte,19860.0,4239.0,21.34
CA,South Gate Police Department,33.95646,-118.20569,CA0196900,South Gate,93308.0,13295.0,14.25
CA,South Pasadena Police Department,34.11581,-118.1524,CA0197000,South Pasadena,26837.0,1619.0,6.03
CA,Temple City Police Department,34.06067,-118.167885,CA0197100,Temple City,36526.0,3691.0,10.11
CA,Torrance Police Department,33.84033,-118.34455,CA0197200,Torrance,147156.0,10587.0,7.19
CA,Vernon Police Department,34.196398,-118.261862,CA0197300,Vernon,328.0,0.0,
CA,Walnut Police Department,34.06067,-118.167885,CA0197400,Walnut,28641.0,2167.0,7.57
CA,West Covina Police Department,34.072132,-117.93709,CA0197500,West Covina,231.0,111.0,48.05
CA,Whittier Police Department,33.974472,-118.03265,CA0197600,Whittier,9995.0,620.0,6.2
CA,Carson Police Department,34.06067,-118.167885,CA0197700,Carson,95104.0,8633.0,9.08
CA,Rancho Palos Verdes Police Department,34.06067,-118.167885,CA0198000,Rancho Palos Verdes,42316.0,1659.0,3.92
CA,Lancaster Police Department,34.06067,-118.167885,CA019960X,Lancaster,171820.0,32741.0,19.06
CA,Manteca Police Department,37.79916,-121.231125,CA0390300,Manteca,82408.0,8793.0,10.67
CA,Ripon Police Department,37.740936,-121.135475,CA0390400,Ripon,15961.0,1015.0,6.36
CA,Stockton Police Department,37.935034,-121.272237,CA0390500,Stockton,317818.0,50877.0,16.01
CA,Tracy Police Department,37.935034,-121.272237,CA0390600,Tracy,92792.0,9028.0,9.73
CA,Escalon Police Department,37.935034,-121.272237,CA0390100,Escalon,7458.0,796.0,10.67
CA,Lodi Police Department,38.135468,-121.27515,CA0390200,Lodi,66107.0,9452.0,14.3
CA,Los Gatos Police Department,37.220777,-121.690622,CA0430700,Los Gatos,33309.0,1164.0,3.49
CA,Los Altos Police Department,37.382168,-122.11404,CA0430500,Los Altos,900.0,16.0,1.78
CA,Gilroy Police Department,37.003857,-121.57284,CA0430400,Gilroy,58802.0,4322.0,7.35
CA,Cupertino Police Department,37.3542,-121.90724,CA0430300,Cupertino,60681.0,3059.0,5.04
CA,Campbell Police Department,37.288048,-121.94482,CA0430200,Campbell,43954.0,2415.0,5.49
CA,Santa Clara Police Department,37.220777,-121.690622,CA0431400,Santa Clara,127922.0,8584.0,6.71
CA,Saratoga Police Department,37.3542,-121.90724,CA0431500,Saratoga,31194.0,909.0,2.91
CA,Sunnyvale Police Department,37.220777,-121.690622,CA0431600,Sunnyvale,155550.0,8117.0,5.22
CA,Morgan Hill Police Department,37.220777,-121.690622,CA0431000,Morgan Hill,45267.0,1600.0,3.53
CA,Mountain View Police Department,37.394695,-122.08119,CA0431100,Mountain View,1868.0,296.0,15.85
CA,Palo Alto Police Department,37.44405,-122.15936,CA0431200,Palo Alto,900.0,16.0,1.78
CA,Monte Sereno Police Department,37.221287,-121.97938,CA0430900,Monte Sereno,3502.0,20.0,0.57
CA,San Jose Police Department,37.220777,-121.690622,CA0431300,San Jose,1013337.0,77013.0,7.6
CA,Milpitas Police Department,37.452545,-121.91041,CA0430800,Milpitas,79593.0,4793.0,6.02
CA,Los Altos Hills Police Department,37.3542,-121.90724,CA0430600,Los Altos Hills,900.0,16.0,1.78
CA,Brentwood Police Department,37.919037,-121.68469,CA0070200,Brentwood,63618.0,4190.0,6.59
CA,Clayton Police Department,37.94229,-121.93776,CA0070300,Clayton,1093.0,72.0,6.59
CA,Concord Police Department,37.919479,-121.951543,CA0070400,Concord,125769.0,11380.0,9.05
CA,El Cerrito Police Department,37.916363,-122.31207,CA0070500,El Cerrito,25898.0,1756.0,6.78
CA,Hercules Police Department,38.00937,-122.26571,CA0070600,Hercules,26050.0,1426.0,5.47
CA,Pinole Police Department,38.00441,-122.290115,CA0070700,Pinole,19065.0,991.0,5.2
CA,Pittsburg Police Department,37.919479,-121.951543,CA0070800,Pittsburg,75701.0,7716.0,10.19
CA,Pleasant Hill Police Department,37.96205,-122.070656,CA0070900,Pleasant Hill,34649.0,2440.0,7.04
CA,Richmond Police Department,37.919479,-121.951543,CA0071000,Richmond,3355.0,198.0,5.9
CA,San Pablo Police Department,37.919479,-121.951543,CA0071100,San Pablo,31975.0,3918.0,12.25
CA,Walnut Creek Police Department,37.919479,-121.951543,CA0071200,Walnut Creek,69876.0,3755.0,5.37
CA,Kensington Police Department,37.919479,-121.951543,CA0071300,Kensington,5288.0,180.0,3.4
CA,Martinez Police Department,38.01375,-122.13533,CA0071400,Martinez,37308.0,2224.0,5.96
CA,Lafayette Police Department,38.01906,-122.13399,CA0071500,Lafayette,25384.0,1132.0,4.46
CA,Moraga Police Department,37.919479,-121.951543,CA0071600,Moraga,16750.0,724.0,4.32
CA,Danville Police Department,38.01906,-122.13399,CA007230X,Danville,43673.0,2083.0,4.77
CA,Antioch Police Department,37.919479,-121.951543,CA0070100,Antioch,114750.0,14677.0,12.79
CA,San Francisco Police Department,37.775047,-122.40381,CA0380100,San Francisco,865933.0,87874.0,10.15
CA,Santa Barbara Police Department,34.537248,-120.037915,CA0420300,Santa Barbara,89132.0,11348.0,12.73
CA,Santa Maria Police Department,34.94979,-120.43389,CA0420400,Santa Maria,109309.0,13760.0,12.59
CA,Carpinteria Police Department,34.537248,-120.037915,CA0420500,Carpinteria,13289.0,1115.0,8.39
CA,Solvang Police Department,34.537248,-120.037915,CA0421000,Solvang,6032.0,398.0,6.6
CA,Buellton Police Department,34.537248,-120.037915,CA0421200,Buellton,5162.0,136.0,2.63
CA,Goleta Police Department,34.44241,-119.77944,CA042140X,Goleta,29983.0,1705.0,5.69
CA,Lompoc Police Department,34.537248,-120.037915,CA0420200,Lompoc,44232.0,7967.0,18.01
CA,Guadalupe Police Department,34.9701,-120.56895,CA0420100,Guadalupe,8138.0,2244.0,27.57
CA,Chino Police Department,34.012817,-117.68927,CA0360200,Chino,90279.0,6478.0,7.18
CA,Barstow Police Department,34.892834,-117.02627,CA0360100,Barstow,25123.0,7389.0,29.41
CA,Colton Police Department,34.071785,-117.323296,CA0360300,Colton,53894.0,7913.0,14.68
CA,Fontana Police Department,34.102913,-117.432785,CA0360400,Fontana,208087.0,23841.0,11.46
CA,Montclair Police Department,34.85722,-116.181197,CA0360500,Montclair,37871.0,6666.0,17.6
CA,Needles Police Department,34.85722,-116.181197,CA0360600,Needles,4921.0,1758.0,35.72
CA,Ontario Police Department,34.027554,-117.593216,CA0360700,Ontario,175223.0,22607.0,12.9
CA,Redlands Police Department,34.85722,-116.181197,CA0360800,Redlands,72649.0,6104.0,8.4
CA,Rialto Police Department,34.103333,-117.37477,CA0360900,Rialto,900.0,16.0,1.78
CA,San Bernardino Police Department,34.85722,-116.181197,CA0361000,San Bernardino,220821.0,44022.0,19.94
CA,Upland Police Department,34.110546,-117.67902,CA0361100,Upland,78624.0,8408.0,10.69
CA,Victorville Police Department,34.85722,-116.181197,CA0361200,Victorville,641.0,0.0,
CA,Adelanto Police Department,34.85722,-116.181197,CA0361300,Adelanto,37229.0,7164.0,19.24
CA,Rancho Cucamonga Police Department,34.10287,-117.575584,CA0361600,Rancho Cucamonga,173946.0,12449.0,7.16
CA,Highland Police Department,34.12124,-117.210754,CA036300X,Highland,3205.0,192.0,5.99
CA,San Luis Obispo Police Department,35.285446,-120.663635,CA0400600,San Luis Obispo,47257.0,13575.0,28.73
CA,Pismo Beach Police Department,35.14444,-120.64104,CA0400500,Pismo Beach,8058.0,547.0,6.79
CA,Morro Bay Police Department,35.365948,-120.842705,CA0400300,Morro Bay,10785.0,846.0,7.84
CA,Grover Beach Police Department,35.120537,-120.6226,CA0400200,Grover Beach,12846.0,1208.0,9.4
CA,Arroyo Grande Police Department,35.120285,-120.59154,CA0400100,Arroyo Grande,18422.0,1025.0,5.56
CA,Atascadero Police Department,35.49247,-120.67593,CA0400800,Atascadero,29771.0,2593.0,8.71
CO,Springfield Police Department,37.406647,-102.61652,CO0050100,Springfield,1318.0,214.0,16.24
CO,Walsh Police Department,37.306678,-102.537765,CO0050700,Walsh,551.0,122.0,22.14
CO,Leadville Police Department,39.25045,-106.29249,CO0330100,Leadville,2623.0,128.0,4.88
CO,De Beque Police Department,39.019492,-108.461837,CO0390400,De Beque,484.0,76.0,15.7
CO,Collbran Police Department,39.019492,-108.461837,CO0390900,Collbran,579.0,229.0,39.55
CO,Fruita Police Department,39.157085,-108.733734,CO0390200,Fruita,13296.0,1030.0,7.75
CO,Palisade Police Department,39.019492,-108.461837,CO0390300,Palisade,2575.0,370.0,14.37
CO,Grand Junction Police Department,39.019492,-108.461837,CO0390100,Grand Junction,65067.0,8183.0,12.58
CO,Fairplay Police Department,39.118914,-105.717648,CO0470100,Fairplay,718.0,52.0,7.24
CO,Mead Police Department,40.555794,-104.383649,CO0622600,Mead,4716.0,244.0,5.17
CO,Fort Lupton Police Department,40.080627,-104.8129,CO0620100,Fort Lupton,7947.0,764.0,9.61
CO,Greeley Police Department,40.422905,-104.72735,CO0620200,Greeley,107014.0,15455.0,14.44
CO,Eaton Police Department,40.526012,-104.71326,CO0620300,Eaton,5648.0,211.0,3.74
CO,Evans Police Department,40.377373,-104.69789,CO0620400,Evans,21727.0,3826.0,17.61
CO,La Salle Police Department,40.350674,-104.703735,CO0620500,La Salle,2934.0,174.0,5.93
CO,Dacono Police Department,40.555794,-104.383649,CO0620800,Dacono,6084.0,397.0,6.53
CO,Kersey Police Department,40.555794,-104.383649,CO0620900,Kersey,1533.0,186.0,12.13
CO,Milliken Police Department,40.555794,-104.383649,CO0621100,Milliken,8122.0,216.0,2.66
CO,Ault Police Department,40.555794,-104.383649,CO0621200,Ault,1785.0,162.0,9.08
CO,Platteville Police Department,40.217316,-104.82332,CO0621300,Platteville,2879.0,223.0,7.75
CO,Frederick Police Department,40.555794,-104.383649,CO0621700,Frederick,14127.0,405.0,2.87
CO,Firestone Police Department,40.555794,-104.383649,CO0621800,Firestone,15949.0,553.0,3.47
CO,Keenesburg Police Department,40.555794,-104.383649,CO0621900,Keenesburg,1546.0,208.0,13.45
CO,Lochbuie Police Department,40.010933,-104.71616,CO0622000,Lochbuie,7730.0,282.0,3.65
CO,Hudson Police Department,40.555794,-104.383649,CO0622400,Hudson,2172.0,344.0,15.84
CO,Severance Police Department,40.555794,-104.383649,CO0622800,Severance,7691.0,55.0,0.72
CO,Yuma Police Department,40.000631,-102.422649,CO0630200,Yuma,3451.0,640.0,18.55
CO,Wray Police Department,40.000631,-102.422649,CO0630100,Wray,2338.0,314.0,13.43
CO,Thornton Police Department,39.868996,-104.984215,CO0010400,Thornton,140538.0,11486.0,8.17
CO,Commerce City Police Department,39.874325,-104.331872,CO0010300,Commerce City,61516.0,6009.0,9.77
CO,Federal Heights Police Department,39.859097,-105.01396,CO0010800,Federal Heights,14111.0,2831.0,20.06
CO,Hotchkiss Police Department,38.861756,-107.864757,CO0150300,Hotchkiss,1273.0,489.0,38.41
CO,Cedaredge Police Department,38.861756,-107.864757,CO0150400,Cedaredge,2584.0,634.0,24.54
CO,Paonia Police Department,38.861756,-107.864757,CO0150200,Paonia,1542.0,196.0,12.71
CO,Delta Police Department,38.74036,-108.072365,CO0150100,Delta,9036.0,1446.0,16.0
CO,Vail Police Department,39.627712,-106.42001,CO0190100,Vail,4900.0,294.0,6.0
CO,Eagle Police Department,39.630638,-106.692944,CO0190200,Eagle,7420.0,433.0,5.84
CO,Avon Police Department,39.630638,-106.692944,CO0190600,Avon,6209.0,979.0,15.77
CO,Kremmling Police Department,40.123289,-106.095876,CO0250300,Kremmling,1697.0,337.0,19.86
CO,Granby Police Department,40.123289,-106.095876,CO0250100,Granby,2229.0,118.0,5.29
CO,Sterling Police Department,40.728091,-103.090464,CO0380100,Sterling,13976.0,1709.0,12.23
CO,Fowler Police Department,38.130898,-104.02448,CO0450400,Fowler,1157.0,288.0,24.89
CO,Manzanola Police Department,37.88417,-103.72126,CO0450300,Manzanola,497.0,26.0,5.23
CO,Rocky Ford Police Department,38.052746,-103.72137,CO0450200,Rocky Ford,3876.0,1209.0,31.19
CO,La Junta Police Department,37.88417,-103.72126,CO0450100,La Junta,7282.0,1783.0,24.49
CO,Ouray Police Department,38.1506,-107.767133,CO0460100,Ouray,1009.0,19.0,1.88
CO,Ridgway Police Department,38.1506,-107.767133,CO0460200,Ridgway,1033.0,131.0,12.68
CO,Hayden Police Department,40.483155,-106.985274,CO0540200,Hayden,2116.0,106.0,5.01
CO,Oak Creek Police Department,40.483155,-106.985274,CO0540300,Oak Creek,722.0,70.0,9.7
CO,Steamboat Springs Police Department,40.483155,-106.985274,CO0540100,Steamboat Springs,13193.0,1241.0,9.41
CO,Denver Police Department,39.737377,-104.99167,CODPD0000,Denver,706799.0,80620.0,11.41
CO,Simla Police Department,39.310582,-104.117729,CO0200200,Simla,534.0,61.0,11.42
CO,Elizabeth Police Department,39.310582,-104.117729,CO0200100,Elizabeth,1792.0,86.0,4.8
CO,Black Hawk Police Department,39.861082,-105.528947,CO0240200,Black Hawk,85.0,0.0,
CO,Craig Police Department,40.506866,-107.558464,CO0410100,Craig,9026.0,1545.0,17.12
CO,Dinosaur Police Department,40.573984,-108.204521,CO0410200,Dinosaur,129.0,9.0,6.98
CO,Log Lane Village Police Department,40.270668,-103.83202,CO0440400,Log Lane Village,960.0,97.0,10.1
CO,Brush Police Department,40.26254,-103.807497,CO0440100,Brush,5323.0,716.0,13.45
CO,Fort Morgan Police Department,40.25126,-103.78875,CO0440200,Fort Morgan,11483.0,1532.0,13.34
CO,Wiggins Police Department,40.26254,-103.807497,CO0440300,Wiggins,1137.0,118.0,10.38
CO,Aspen Police Department,39.19041,-106.81792,CO0490100,Aspen,7019.0,214.0,3.05
CO,Snowmass Village Police Department,39.217533,-106.915943,CO0490200,Snowmass Village,3089.0,11.0,0.36
CO,Pueblo Police Department,38.268818,-104.6085,CO0510100,Pueblo,111424.0,22698.0,20.37
CO,Dillon Police Department,39.621023,-106.137555,CO0590200,Dillon,1147.0,133.0,11.6
CO,Breckenridge Police Department,39.621023,-106.137555,CO0590100,Breckenridge,5086.0,67.0,1.32
CO,Blue River Police Department,39.621023,-106.137555,CO0590500,Blue River,947.0,25.0,2.64
CO,Silverthorne Police Department,39.621023,-106.137555,CO0590300,Silverthorne,4520.0,140.0,3.1
CO,Frisco Police Department,39.621023,-106.137555,CO0590400,Frisco,2952.0,268.0,9.08
CO,Cripple Creek Police Department,38.871994,-105.182552,CO0600200,Cripple Creek,992.0,188.0,18.95
CO,Woodland Park Police Department,38.871994,-105.182552,CO0600100,Woodland Park,7854.0,558.0,7.1
