State,Agency Name,Latitude,Longitude,ORI,City
AK,Nome Police Department,64.783686,-164.188912,AK0010600,Nome
AK,Sitka Police Department,57.052124,-135.33418,AK0010900,Sitka
AK,Bethel Police Department,60.928916,-160.15335,AK0011300,Bethel
AK,Haines Police Department,59.098771,-135.576936,AK0012100,Haines
AK,Juneau Police Department,58.356556,-134.50731,AK0010300,Juneau
AK,Skagway Police Department,59.575097,-135.335418,AK0011000,Skagway
AK,Wrangell Police Department,56.279121,-132.040325,AK0011100,Wrangell
AK,Anchorage Police Department,61.17425,-149.284329,AK0010100,Anchorage
AK,Dillingham Police Department,59.824816,-158.602233,AK0013000,Dillingham
AK,Petersburg Police Department,55.415683,-132.875734,AK0010700,Petersburg
AK,Bristol Bay Borough Police Department,58.732389,-156.986661,AK0014600,Bristol Bay Borough
AK,North Slope Borough Police Department,69.449343,-153.47283,AK0011800,North Slope Borough
AK,Hoonah Police Department,58.076434,-135.1851,AK0013100,Hoonah
AK,Kodiak Police Department,57.8049,-152.37332,AK0010500,Kodiak
AK,Sand Point Police Department,55.245044,-161.997477,AK0015200,Sand Point
AK,Unalaska Police Department,51.959447,178.338813,AK0013300,Unalaska
AK,St. Paul Police Department,51.959447,178.338813,AK0015000,St. Paul
AK,Cordova Police Department,61.34984,-145.023141,AK0011400,Cordova
AK,Valdez Police Department,61.34984,-145.023141,AK0011200,Valdez
AK,Whittier Police Department,61.34984,-145.023141,AK0012800,Whittier
AK,Seldovia Police Department,60.366668,-152.322283,AK0011900,Seldovia
AK,Seward Police Department,60.366668,-152.322283,AK0010800,Seward
AK,Soldotna Police Department,60.481678,-151.07265,AK0012000,Soldotna
AK,Homer Police Department,59.64873,-151.52992,AK0012200,Homer
AK,Kenai Police Department,60.559402,-151.2507,AK0012300,Kenai
AK,Kotzebue Police Department,67.005066,-160.021086,AK0011600,Kotzebue
AK,Ketchikan Police Department,55.449938,-131.106685,AK0010400,Ketchikan
AK,Wasilla Police Department,62.182174,-149.407974,AK0015600,Wasilla
AK,Palmer Police Department,61.602676,-149.11183,AK0011700,Palmer
AK,North Pole Police Department,64.75503,-147.35081,AK0013200,North Pole
AK,Fairbanks Police Department,64.83945,-147.71942,AK0010200,Fairbanks
AK,Craig Police Department,55.415683,-132.875734,AK0014500,Craig
AK,Klawock Police Department,55.415683,-132.875734,AK0013500,Klawock
AL,Opelika Police Department,32.604064,-85.353048,AL0430200,Opelika
AL,Auburn Police Department,32.608086,-85.475136,AL0430100,Auburn
AL,Centreville Police Department,33.015893,-87.127148,AL0070100,Centreville
AL,West Blocton Police Department,33.015893,-87.127148,AL0070300,West Blocton
AL,Brent Police Department,33.015893,-87.127148,AL0070200,Brent
AL,Lineville Police Department,33.267809,-85.862051,AL0170200,Lineville
AL,Ashland Police Department,33.267809,-85.862051,AL0170100,Ashland
AL,Clayhatchee Police Department,31.23572,-85.72021,AL0260900,Clayhatchee
AL,Ozark Police Department,31.430654,-85.609476,AL0260100,Ozark
AL,Daleville Police Department,31.430654,-85.609476,AL0260200,Daleville
AL,Level Plains Police Department,31.430654,-85.609476,AL0260300,Level Plains
AL,Napier Field Police Department,31.314436,-85.453896,AL0260400,Napier Field
AL,Newton Police Department,31.430654,-85.609476,AL0260500,Newton
AL,Midland City Police Department,31.430654,-85.609476,AL0260600,Midland City
AL,Pinckard Police Department,31.430654,-85.609476,AL0260700,Pinckard
AL,Greensboro Police Department,32.7041,-87.59217,AL0360100,Greensboro
AL,Troy Police Department,31.798651,-85.941604,AL0550100,Troy
AL,Brundidge Police Department,31.72041,-85.81567,AL0550200,Brundidge
AL,Rockford Police Department,32.931445,-86.243482,AL0220200,Rockford
AL,Goodwater Police Department,32.931445,-86.243482,AL0220100,Goodwater
AL,Newville Police Department,31.516978,-85.239971,AL0370300,Newville
AL,Abbeville Police Department,31.516978,-85.239971,AL0370100,Abbeville
AL,Headland Police Department,31.35161,-85.34198,AL0370200,Headland
AL,Sulligent Police Department,33.787085,-88.087431,AL0400100,Sulligent
AL,Millport Police Department,33.787085,-88.087431,AL0400400,Millport
AL,Vernon Police Department,33.787085,-88.087431,AL0400200,Vernon
AL,Shorter Police Department,32.387027,-85.692887,AL0460600,Shorter
AL,Tuskegee Police Department,32.436695,-85.69221,AL0460100,Tuskegee
AL,Marion Police Department,32.639005,-87.293827,AL0530100,Marion
AL,Uniontown Police Department,32.639005,-87.293827,AL0530200,Uniontown
AL,Oneonta Police Department,33.943935,-86.47508,AL0080100,Oneonta
AL,Blountsville Police Department,33.977448,-86.567246,AL0080200,Blountsville
AL,Cleveland Police Department,33.977448,-86.567246,AL0080300,Cleveland
AL,Snead Police Department,33.977448,-86.567246,AL0080400,Snead
AL,Highland Lake Police Department,33.885117,-86.41327,AL0080500,Highland Lake
AL,Georgiana Police Department,31.751667,-86.681969,AL0100200,Georgiana
AL,Greenville Police Department,31.751667,-86.681969,AL0100100,Greenville
AL,Fulton Police Department,31.685521,-87.818624,AL0160400,Fulton
AL,Jackson Police Department,31.685521,-87.818624,AL0160100,Jackson
AL,Thomasville Police Department,31.685521,-87.818624,AL0160200,Thomasville
AL,Grove Hill Police Department,31.685521,-87.818624,AL0160300,Grove Hill
AL,Coffeeville Police Department,31.685521,-87.818624,AL0160600,Coffeeville
AL,Elba Police Department,31.402258,-85.989602,AL0190100,Elba
AL,New Brockton Police Department,31.402258,-85.989602,AL0190300,New Brockton
AL,Kinston Police Department,31.402258,-85.989602,AL0190400,Kinston
AL,Selma Police Department,32.33354,-87.114356,AL0270100,Selma
AL,Fyffe Police Department,34.460929,-85.803992,AL0281100,Fyffe
AL,Crossville Police Department,34.460929,-85.803992,AL0281000,Crossville
AL,Hammondville Police Department,34.57885,-85.62933,AL0280800,Hammondville
AL,Rainsville Police Department,34.460929,-85.803992,AL0280700,Rainsville
AL,Mentone Police Department,34.460929,-85.803992,AL0280600,Mentone
AL,Powell Police Department,34.460929,-85.803992,AL0280500,Powell
AL,Henagar Police Department,34.460929,-85.803992,AL0280400,Henagar
AL,Geraldine Police Department,34.460929,-85.803992,AL0280300,Geraldine
AL,Fort Payne Police Department,34.440315,-85.72332,AL0280100,Fort Payne
AL,Ider Police Department,34.460929,-85.803992,AL0281400,Ider
AL,Valley Head Police Department,34.460929,-85.803992,AL0281300,Valley Head
AL,Sylvania Police Department,34.460929,-85.803992,AL0281200,Sylvania
AL,Wetumpka Police Department,32.597229,-86.142738,AL0290100,Wetumpka
AL,Coosada Police Department,32.597229,-86.142738,AL0290400,Coosada
AL,Eclectic Police Department,32.597229,-86.142738,AL0290300,Eclectic
AL,Rainbow City Police Department,33.951508,-86.044334,AL0310500,Rainbow City
AL,Walnut Grove Police Department,34.047648,-86.034522,AL0311000,Walnut Grove
AL,Hokes Bluff Police Department,34.047648,-86.034522,AL0310600,Hokes Bluff
AL,Gadsden Police Department,34.047648,-86.034522,AL0310200,Gadsden
AL,Attalla Police Department,34.022778,-86.08711,AL0310100,Attalla
AL,Samson Police Department,31.092392,-85.821011,AL0340200,Samson
AL,Hartford Police Department,31.092392,-85.821011,AL0340300,Hartford
AL,Slocomb Police Department,31.092392,-85.821011,AL0340400,Slocomb
AL,Geneva Police Department,31.092392,-85.821011,AL0340100,Geneva
AL,Eutaw Police Department,32.844497,-87.9642,AL0350100,Eutaw
AL,Brilliant Police Department,34.138219,-87.881551,AL0490500,Brilliant
AL,Hackleburg Police Department,34.138219,-87.881551,AL0490400,Hackleburg
AL,Guin Police Department,34.138219,-87.881551,AL0490300,Guin
AL,Hamilton Police Department,34.138219,-87.881551,AL0490100,Hamilton
AL,Bear Creek Police Department,34.138219,-87.881551,AL0490700,Bear Creek
AL,Bayou La Batre Police Department,30.684572,-88.196568,AL0020600,Bayou La Batre
AL,Satsuma Police Department,30.684572,-88.196568,AL0020700,Satsuma
AL,Mount Vernon Police Department,30.684572,-88.196568,AL0020800,Mount Vernon
AL,Creola Police Department,30.684572,-88.196568,AL0021200,Creola
AL,Dauphin Island Police Department,30.684572,-88.196568,AL0021500,Dauphin Island
AL,Mobile Police Department,30.673004,-88.09793,AL0020100,Mobile
AL,Prichard Police Department,30.730814,-88.0808,AL0020200,Prichard
AL,Chickasaw Police Department,30.684572,-88.196568,AL0020300,Chickasaw
AL,Citronelle Police Department,31.089754,-88.22756,AL0020400,Citronelle
AL,Saraland Police Department,30.80567,-88.071266,AL0020500,Saraland
AL,Monroeville Police Department,31.580332,-87.383266,AL0510100,Monroeville
AL,Frisco City Police Department,31.580332,-87.383266,AL0510200,Frisco City
AL,Excel Police Department,31.580332,-87.383266,AL0510400,Excel
AL,Hartselle Police Department,34.442818,-86.940285,AL0520200,Hartselle
AL,Falkville Police Department,34.454484,-86.846402,AL0520400,Falkville
AL,Somerville Police Department,34.454484,-86.846402,AL0520600,Somerville
AL,Priceville Police Department,34.5353,-86.90332,AL0520900,Priceville
AL,Columbiana Police Department,33.177193,-86.60668,AL0590200,Columbiana
AL,Montevallo Police Department,33.099293,-86.86463,AL0590300,Montevallo
AL,Alabaster Police Department,33.24704,-86.81563,AL0590400,Alabaster
AL,Pelham Police Department,33.262937,-86.678104,AL0590600,Pelham
AL,Harpersville Police Department,33.262937,-86.678104,AL0590900,Harpersville
AL,Cuba Police Department,32.597481,-88.200057,AL0600300,Cuba
AL,Livingston Police Department,32.597481,-88.200057,AL0600200,Livingston
AL,York Police Department,32.597481,-88.200057,AL0600100,York
AL,Parrish Police Department,33.791558,-87.301094,AL0640600,Parrish
AL,Dora Police Department,33.738365,-87.08069,AL0640400,Dora
AL,Cordova Police Department,33.791558,-87.301094,AL0640300,Cordova
AL,Carbon Hill Police Department,33.791558,-87.301094,AL0640200,Carbon Hill
AL,Jasper Police Department,33.835384,-87.27464,AL0640100,Jasper
AL,Camden Police Department,31.990372,-87.302216,AL0660100,Camden
AL,Pine Hill Police Department,31.990372,-87.302216,AL0660200,Pine Hill
AL,Autaugaville Police Department,32.536382,-86.64449,AL0040200,Autaugaville
AL,Foley Police Department,30.659218,-87.746067,AL0050300,Foley
AL,Gulf Shores Police Department,30.659218,-87.746067,AL0050400,Gulf Shores
AL,Robertsdale Police Department,30.659218,-87.746067,AL0050500,Robertsdale
AL,Loxley Police Department,30.659218,-87.746067,AL0050600,Loxley
AL,Silverhill Police Department,30.659218,-87.746067,AL0050700,Silverhill
AL,Daphne Police Department,30.599625,-87.898056,AL0050800,Daphne
AL,Summerdale Police Department,30.659218,-87.746067,AL0050900,Summerdale
AL,Elberta Police Department,30.659218,-87.746067,AL0051000,Elberta
AL,Orange Beach Police Department,30.659218,-87.746067,AL0051200,Orange Beach
AL,Spanish Fort Police Department,30.659218,-87.746067,AL0051300,Spanish Fort
AL,Bay Minette Police Department,30.659218,-87.746067,AL0050100,Bay Minette
AL,Fairhope Police Department,30.659218,-87.746067,AL0050200,Fairhope
AL,Baker Hill Police Department,31.870253,-85.405104,AL0060700,Baker Hill
AL,Louisville Police Department,31.870253,-85.405104,AL0060400,Louisville
AL,Clio Police Department,31.870253,-85.405104,AL0060300,Clio
AL,Clayton Police Department,31.870253,-85.405104,AL0060200,Clayton
AL,Eufaula Police Department,31.870253,-85.405104,AL0060100,Eufaula
AL,Union Springs Police Department,32.13935,-85.716125,AL0090100,Union Springs
AL,Ohatchee Police Department,33.771706,-85.822513,AL0110700,Ohatchee
AL,Anniston Police Department,33.771706,-85.822513,AL0110100,Anniston
AL,Jacksonville Police Department,33.813366,-85.76122,AL0110200,Jacksonville
AL,Piedmont Police Department,33.771706,-85.822513,AL0110300,Piedmont
AL,Weaver Police Department,33.771706,-85.822513,AL0110400,Weaver
AL,Clanton Police Department,32.854051,-86.726607,AL0140100,Clanton
AL,Thorsby Police Department,32.854051,-86.726607,AL0140400,Thorsby
AL,Jemison Police Department,32.854051,-86.726607,AL0140300,Jemison
AL,Maplesville Police Department,32.854051,-86.726607,AL0140200,Maplesville
AL,Butler Police Department,31.990997,-88.248908,AL0150100,Butler
AL,Gilbertown Police Department,31.990997,-88.248908,AL0150200,Gilbertown
AL,Pennington Police Department,31.990997,-88.248908,AL0150300,Pennington
AL,Sheffield Police Department,34.703112,-87.801457,AL0200100,Sheffield
AL,Tuscumbia Police Department,34.703112,-87.801457,AL0200200,Tuscumbia
AL,Muscle Shoals Police Department,34.703112,-87.801457,AL0200300,Muscle Shoals
AL,Cherokee Police Department,34.703112,-87.801457,AL0200400,Cherokee
AL,Littleville Police Department,34.59297,-87.67472,AL0200600,Littleville
AL,Leighton Police Department,34.703112,-87.801457,AL0200500,Leighton
AL,Castleberry Police Department,31.428292,-86.992029,AL0210200,Castleberry
AL,Evergreen Police Department,31.428292,-86.992029,AL0210100,Evergreen
AL,Repton Police Department,31.428292,-86.992029,AL0210300,Repton
AL,Cullman Police Department,34.131923,-86.869267,AL0250100,Cullman
AL,Hanceville Police Department,34.131923,-86.869267,AL0250200,Hanceville
AL,Berry Police Department,33.661625,-87.60143,AL0320200,Berry
AL,Fayette Police Department,33.716157,-87.764292,AL0320100,Fayette
AL,Columbia Police Department,31.158193,-85.296398,AL0380400,Columbia
AL,Webb Police Department,31.158193,-85.296398,AL0381000,Webb
AL,Kinsey Police Department,31.298319,-85.344284,AL0380600,Kinsey
AL,Cottonwood Police Department,31.158193,-85.296398,AL0380500,Cottonwood
AL,Gordon Police Department,31.14179,-85.096176,AL0380300,Gordon
AL,Ashford Police Department,31.158193,-85.296398,AL0380200,Ashford
AL,Bridgeport Police Department,34.764095,-85.979956,AL0390200,Bridgeport
AL,Section Police Department,34.764095,-85.979956,AL0390700,Section
AL,Pisgah Police Department,34.764095,-85.979956,AL0390500,Pisgah
AL,Woodville Police Department,34.764095,-85.979956,AL0390800,Woodville
AL,Skyline Police Department,34.764095,-85.979956,AL0390900,Skyline
AL,Stevenson Police Department,34.867935,-85.837616,AL0390300,Stevenson
AL,Hollywood Police Department,34.764095,-85.979956,AL0390400,Hollywood
AL,Scottsboro Police Department,34.66247,-86.035,AL0390100,Scottsboro
AL,White Hall Police Department,32.147888,-86.650586,AL0450500,White Hall
AL,Fort Deposit Police Department,32.147888,-86.650586,AL0450100,Fort Deposit
AL,Hayneville Police Department,32.147888,-86.650586,AL0450200,Hayneville
AL,Gurley Police Department,34.764238,-86.55108,AL0470300,Gurley
AL,Triana Police Department,34.583607,-86.73393,AL0470600,Triana
AL,Owens Crossroads Police Department,34.764238,-86.55108,AL0470500,Owens Crossroads
AL,New Hope Police Department,34.764238,-86.55108,AL0470400,New Hope
AL,Faunsdale Police Department,32.247591,-87.791091,AL0480400,Faunsdale
AL,Demopolis Police Department,32.247591,-87.791091,AL0480100,Demopolis
AL,Linden Police Department,32.247591,-87.791091,AL0480200,Linden
AL,Thomaston Police Department,32.247591,-87.791091,AL0480300,Thomaston
AL,Sweet Water Police Department,32.247591,-87.791091,AL0480600,Sweet Water
AL,Aliceville Police Department,33.129322,-88.15072,AL0540100,Aliceville
AL,Pickensville Police Department,33.296808,-88.096878,AL0540500,Pickensville
AL,Gordo Police Department,33.296808,-88.096878,AL0540200,Gordo
AL,Carrollton Police Department,33.296808,-88.096878,AL0540400,Carrollton
AL,Reform Police Department,33.296808,-88.096878,AL0540300,Reform
AL,Addison Police Department,34.155888,-87.364147,AL0670300,Addison
AL,Lynn Police Department,34.155888,-87.364147,AL0670500,Lynn
AL,Double Springs Police Department,34.155888,-87.364147,AL0670100,Double Springs
AL,Arley Police Department,34.155888,-87.364147,AL0670400,Arley
AL,Valley Police Department,32.915504,-85.394032,AL0120400,Valley
AL,Lafayette Police Department,32.915504,-85.394032,AL0120100,Lafayette
AL,Lanett Police Department,32.915504,-85.394032,AL0120200,Lanett
AL,Centre Police Department,34.1512,-85.67609,AL0130100,Centre
AL,Leesburg Police Department,34.069515,-85.654242,AL0130300,Leesburg
AL,Cedar Bluff Police Department,34.069515,-85.654242,AL0130200,Cedar Bluff
AL,Ranburne Police Department,33.671964,-85.516126,AL0180200,Ranburne
AL,Heflin Police Department,33.671964,-85.516126,AL0180100,Heflin
AL,Luverne Police Department,31.732826,-86.319222,AL0240100,Luverne
AL,Brantley Police Department,31.732826,-86.319222,AL0240200,Brantley
AL,Flomaton Police Department,31.121747,-87.168429,AL0300400,Flomaton
AL,East Brewton Police Department,31.121747,-87.168429,AL0300300,East Brewton
AL,Brewton Police Department,31.121747,-87.168429,AL0300200,Brewton
AL,Atmore Police Department,31.121747,-87.168429,AL0300100,Atmore
AL,Russellville Police Department,34.476738,-87.72945,AL0330100,Russellville
AL,Phil Campbell Police Department,34.441989,-87.842814,AL0330200,Phil Campbell
AL,Red Bay Police Department,34.441989,-87.842814,AL0330300,Red Bay
AL,Moulton Police Department,34.48087,-87.29011,AL0420100,Moulton
AL,North Courtland Police Department,34.529776,-87.321865,AL0420500,North Courtland
AL,Hillsboro Police Department,34.529776,-87.321865,AL0420400,Hillsboro
AL,Courtland Police Department,34.529776,-87.321865,AL0420300,Courtland
AL,Town Creek Police Department,34.529776,-87.321865,AL0420200,Town Creek
AL,Albertville Police Department,34.309564,-86.321668,AL0500100,Albertville
AL,Guntersville Police Department,34.36029,-86.29187,AL0500200,Guntersville
AL,Grant Police Department,34.309564,-86.321668,AL0500500,Grant
AL,Douglas Police Department,34.309564,-86.321668,AL0500600,Douglas
AL,Roanoke Police Department,33.150887,-85.37395,AL0560100,Roanoke
AL,Wadley Police Department,33.296475,-85.464068,AL0560200,Wadley
AL,Wedowee Police Department,33.296475,-85.464068,AL0560300,Wedowee
AL,Ashville Police Department,33.712963,-86.315663,AL0580200,Ashville
AL,Springville Police Department,33.712963,-86.315663,AL0580400,Springville
AL,Odenville Police Department,33.712963,-86.315663,AL0580500,Odenville
AL,Moody Police Department,33.712963,-86.315663,AL0580600,Moody
AL,Riverside Police Department,33.712963,-86.315663,AL0580700,Riverside
AL,Margaret Police Department,33.712963,-86.315663,AL0580800,Margaret
AL,Steele Police Department,33.712963,-86.315663,AL0580900,Steele
AL,Pell City Police Department,33.712963,-86.315663,AL0580100,Pell City
AL,Ragland Police Department,33.699944,-86.25525,AL0580300,Ragland
AL,Opp Police Department,31.243987,-86.448721,AL0230200,Opp
AL,Florala Police Department,31.243987,-86.448721,AL0230300,Florala
AL,Gantt Police Department,31.243987,-86.448721,AL0230400,Gantt
AL,Red Level Police Department,31.243987,-86.448721,AL0230500,Red Level
AL,Lockhart Police Department,31.243987,-86.448721,AL0230600,Lockhart
AL,River Falls Police Department,31.243987,-86.448721,AL0230700,River Falls
AL,Andalusia Police Department,31.243987,-86.448721,AL0230100,Andalusia
AL,Bessemer Police Department,33.396152,-86.95345,AL0010100,Bessemer
AL,Mountain Brook Police Department,33.50124,-86.75607,AL0010300,Mountain Brook
AL,Fairfield Police Department,33.553444,-86.896536,AL0010400,Fairfield
AL,Gardendale Police Department,33.553444,-86.896536,AL0010500,Gardendale
AL,Midfield Police Department,33.553444,-86.896536,AL0010700,Midfield
AL,Tarrant Police Department,33.585728,-86.775024,AL0010800,Tarrant
AL,Homewood Police Department,33.479603,-86.791016,AL0011000,Homewood
AL,Fultondale Police Department,33.553444,-86.896536,AL0011100,Fultondale
AL,Irondale Police Department,33.538326,-86.70705,AL0011300,Irondale
AL,Pleasant Grove Police Department,33.49046,-86.9703,AL0011400,Pleasant Grove
AL,Graysville Police Department,33.553444,-86.896536,AL0011600,Graysville
AL,Brighton Police Department,33.42912,-86.94988,AL0011800,Brighton
AL,Hueytown Police Department,33.553444,-86.896536,AL0011900,Hueytown
AL,Lipscomb Police Department,33.553444,-86.896536,AL0012000,Lipscomb
AL,Adamsville Police Department,33.553444,-86.896536,AL0012200,Adamsville
AL,Warrior Police Department,33.553444,-86.896536,AL0012300,Warrior
AL,Trafford Police Department,33.553444,-86.896536,AL0012500,Trafford
AL,Morris Police Department,33.553444,-86.896536,AL0012600,Morris
AL,Brookside Police Department,33.553444,-86.896536,AL0012700,Brookside
AL,Kimberly Police Department,33.553444,-86.896536,AL0012900,Kimberly
AL,Ardmore Police Department,34.810239,-86.981399,AL0440200,Ardmore
AL,Athens Police Department,34.803825,-86.95889,AL0440100,Athens
AL,Talladega Police Department,33.369277,-86.175805,AL0610200,Talladega
AL,Sylacauga Police Department,33.369277,-86.175805,AL0610100,Sylacauga
AL,Childersburg Police Department,33.278336,-86.35341,AL0610300,Childersburg
AL,Lincoln Police Department,33.369277,-86.175805,AL0610400,Lincoln
AL,Munford Police Department,33.369277,-86.175805,AL0611200,Munford
AL,St. Florian Police Department,34.904122,-87.650997,AL0410400,St. Florian
AL,Florence Police Department,34.904122,-87.650997,AL0410100,Florence
AL,Lexington Police Department,34.904122,-87.650997,AL0410500,Lexington
AL,Rogersville Police Department,34.904122,-87.650997,AL0410600,Rogersville
AL,Killen Police Department,34.904122,-87.650997,AL0410700,Killen
AL,Notasulga Police Department,32.387027,-85.692887,AL0460200,Notasulga
AL,Montgomery Police Department,32.20365,-86.203831,AL0030100,Montgomery
AL,Alexander City Police Department,32.863369,-85.799553,AL0620100,Alexander City
AL,Dadeville Police Department,32.829388,-85.76364,AL0620200,Dadeville
AL,Camp Hill Police Department,32.863369,-85.799553,AL0620300,Camp Hill
AL,New Site Police Department,32.863369,-85.799553,AL0620600,New Site
AL,Jacksons Gap Police Department,32.863369,-85.799553,AL0620700,Jacksons Gap
AL,Tuscaloosa Police Department,33.173267,-87.55792,AL0630100,Tuscaloosa
AL,Northport Police Department,33.290202,-87.52286,AL0630200,Northport
AL,Brookwood Police Department,33.290202,-87.52286,AL0630800,Brookwood
AL,Coaling Police Department,33.290202,-87.52286,AL0631400,Coaling
AL,McIntosh Police Department,31.405217,-88.197564,AL0650100,McIntosh
AL,Chatom Police Department,31.405217,-88.197564,AL0650300,Chatom
AL,Millry Police Department,31.405217,-88.197564,AL0650200,Millry
AL,Enterprise Police Department,31.402258,-85.989602,AL0190200,Enterprise
AL,Phenix City Police Department,32.46812,-85.00083,AL0570100,Phenix City
AL,Altoona Police Department,34.047648,-86.034522,AL0310900,Altoona
AL,Prattville Police Department,32.459705,-86.47263,AL0040100,Prattville
AL,Millbrook Police Department,32.597229,-86.142738,AL0290600,Millbrook
AL,McKenzie Police Department,31.751667,-86.681969,AL0100300,McKenzie
AL,Glencoe Police Department,34.047648,-86.034522,AL0310400,Glencoe
AL,Southside Police Department,33.92092,-86.02231,AL0310700,Southside
AL,Calera Police Department,33.262937,-86.678104,AL0590100,Calera
AL,Winfield Police Department,34.138219,-87.881551,AL0490200,Winfield
AL,Taylor Police Department,31.160837,-85.46916,AL0380900,Taylor
AL,Haleyville Police Department,34.155888,-87.364147,AL0670200,Haleyville
AL,Woodstock Police Department,33.015893,-87.127148,AL0070400,Woodstock
AL,Vance Police Department,33.290202,-87.52286,AL0630700,Vance
AL,Collinsville Police Department,34.460929,-85.803992,AL0280200,Collinsville
AL,Sardis City Police Department,34.047648,-86.034522,AL0310800,Sardis City
AL,Boaz Police Department,34.1956,-86.16411,AL0500400,Boaz
AL,Moundville Police Department,32.752796,-87.623061,AL0360200,Moundville
AL,Trinity Police Department,34.610783,-87.08653,AL0520700,Trinity
AL,Arab Police Department,34.32761,-86.4977,AL0500300,Arab
AL,Hoover Police Department,33.38795,-86.80636,AL0011200,Hoover
AL,Vestavia Hills Police Department,33.553444,-86.896536,AL0010900,Vestavia Hills
AL,Birmingham Police Department,33.553444,-86.896536,AL0010200,Birmingham
AL,Helena Police Department,33.262937,-86.678104,AL0590700,Helena
AL,Sumiton Police Department,33.791558,-87.301094,AL0640500,Sumiton
AL,Decatur Police Department,34.454484,-86.846402,AL0520100,Decatur
AL,Oxford Police Department,33.771706,-85.822513,AL0110500,Oxford
AL,Tallassee Police Department,32.597229,-86.142738,AL0290200,Tallassee
AL,Huntsville Police Department,34.764238,-86.55108,AL0470100,Huntsville
AL,Madison Police Department,34.6994,-86.74227,AL0470200,Madison
AL,Argo Police Department,33.68995,-86.50901,AL0581200,Argo
AL,Trussville Police Department,33.553444,-86.896536,AL0012100,Trussville
AL,Dothan Police Department,31.225441,-85.3914,AL0380100,Dothan
AL,Lake View Police Department,33.290202,-87.52286,AL0631100,Lake View
AL,Leeds Police Department,33.553444,-86.896536,AL0010600,Leeds
AR,Marianna Police Department,34.774353,-90.756905,AR0390100,Marianna
AR,Corning Police Department,36.367302,-90.418704,AR0110100,Corning
AR,Piggott Police Department,36.381676,-90.19208,AR0110200,Piggott
AR,Monticello Police Department,33.587242,-91.722778,AR0220100,Monticello
AR,Murfreesboro Police Department,34.158191,-93.658659,AR0550100,Murfreesboro
AR,Mena Police Department,34.586895,-94.23994,AR0570100,Mena
AR,Dover Police Department,35.455297,-93.031535,AR0580700,Dover
AR,Russellville Police Department,35.28542,-93.13359,AR0580100,Russellville
AR,Atkins Police Department,35.455297,-93.031535,AR0580200,Atkins
AR,Pottsville Police Department,35.24981,-93.04601,AR0581000,Pottsville
AR,Dardanelle Police Department,34.997713,-93.408303,AR0750100,Dardanelle
AR,Danville Police Department,34.997713,-93.408303,AR0750200,Danville
AR,Ola Police Department,34.997713,-93.408303,AR0750300,Ola
AR,Harrison Police Department,36.304308,-93.079204,AR0050100,Harrison
AR,Diamond City Police Department,36.304308,-93.079204,AR0050200,Diamond City
AR,Arkadelphia Police Department,34.12099,-93.053696,AR0100100,Arkadelphia
AR,Gurdon Police Department,34.053316,-93.176208,AR0100200,Gurdon
AR,Caddo Valley Police Department,34.18449,-93.06645,AR0100300,Caddo Valley
AR,Amity Police Department,34.053316,-93.176208,AR0100500,Amity
AR,Wynne Police Department,35.223675,-90.78702,AR0190100,Wynne
AR,Parkin Police Department,35.291259,-90.773894,AR0190200,Parkin
AR,McGehee Police Department,33.828748,-91.244427,AR0210100,McGehee
AR,Dumas Police Department,33.828748,-91.244427,AR0210300,Dumas
AR,Sheridan Police Department,34.305027,-92.39071,AR0270100,Sheridan
AR,Paris Police Department,35.218549,-93.720563,AR0420200,Paris
AR,Booneville Police Department,35.140034,-93.91495,AR0420100,Booneville
AR,Perryville Police Department,34.946363,-92.926877,AR0530100,Perryville
AR,Waldron Police Department,34.858869,-94.063641,AR0640100,Waldron
AR,Highland Police Department,36.259796,-91.54158,AR0680600,Highland
AR,Mountain View Police Department,35.856989,-92.140494,AR0690100,Mountain View
AR,El Dorado Police Department,33.168219,-92.598145,AR0700100,El Dorado
AR,Smackover Police Department,33.364445,-92.72366,AR0700200,Smackover
AR,Bald Knob Police Department,35.254722,-91.753158,AR0730200,Bald Knob
AR,Beebe Police Department,35.254722,-91.753158,AR0730300,Beebe
AR,Kensett Police Department,35.23232,-91.66712,AR0730400,Kensett
AR,Pangburn Police Department,35.254722,-91.753158,AR0730500,Pangburn
AR,Rose Bud Police Department,35.254722,-91.753158,AR0730600,Rose Bud
AR,Judsonia Police Department,35.254722,-91.753158,AR0730700,Judsonia
AR,Bradford Police Department,35.42481,-91.456474,AR0730800,Bradford
AR,Higginson Police Department,35.254722,-91.753158,AR0730900,Higginson
AR,McRae Police Department,35.112488,-91.82137,AR0731000,McRae
AR,Searcy Police Department,35.254722,-91.753158,AR0730100,Searcy
AR,Hamburg Police Department,33.190835,-91.772267,AR0020200,Hamburg
AR,Crossett Police Department,33.190835,-91.772267,AR0020100,Crossett
AR,Gassville Police Department,36.28071,-92.330438,AR0030300,Gassville
AR,Lakeview Police Department,36.28071,-92.330438,AR0030400,Lakeview
AR,Norfork Police Department,36.28071,-92.330438,AR0030500,Norfork
AR,Mountain Home Police Department,36.333,-92.38602,AR0030100,Mountain Home
AR,Cotter Police Department,36.28071,-92.330438,AR0030200,Cotter
AR,Bella Vista Police Department,36.337825,-94.256187,AR0042100,Bella Vista
AR,Highfill Police Department,36.25874,-94.350586,AR0042000,Highfill
AR,Bentonville Police Department,36.38833,-94.21991,AR0040100,Bentonville
AR,Rogers Police Department,36.337825,-94.256187,AR0040200,Rogers
AR,Siloam Springs Police Department,36.18789,-94.54058,AR0040300,Siloam Springs
AR,Pea Ridge Police Department,36.337825,-94.256187,AR0040400,Pea Ridge
AR,Gentry Police Department,36.267563,-94.483574,AR0040500,Gentry
AR,Lowell Police Department,36.2561,-94.13233,AR0040600,Lowell
AR,Gravette Police Department,36.42675,-94.45365,AR0040700,Gravette
AR,Decatur Police Department,36.337825,-94.256187,AR0040800,Decatur
AR,Cave Springs Police Department,36.337825,-94.256187,AR0040900,Cave Springs
AR,Sulphur Springs Police Department,36.337825,-94.256187,AR0041100,Sulphur Springs
AR,Centerton Police Department,36.337825,-94.256187,AR0041300,Centerton
AR,Little Flock Police Department,36.37721,-94.13746,AR0041600,Little Flock
AR,Eudora Police Department,33.108925,-91.26192,AR0090200,Eudora
AR,Lake Village Police Department,33.267139,-91.297158,AR0090300,Lake Village
AR,Plumerville Police Department,35.265702,-92.689248,AR0150300,Plumerville
AR,Menifee Police Department,35.265702,-92.689248,AR0150400,Menifee
AR,Morrilton Police Department,35.265702,-92.689248,AR0150100,Morrilton
AR,Fordyce Police Department,33.967823,-92.653999,AR0200100,Fordyce
AR,Salem Police Department,36.383447,-91.819245,AR0250100,Salem
AR,Mammoth Spring Police Department,36.383447,-91.819245,AR0250200,Mammoth Spring
AR,Marmaduke Police Department,36.186962,-90.38301,AR0280200,Marmaduke
AR,Paragould Police Department,36.119922,-90.565241,AR0280100,Paragould
AR,Mineral Springs Police Department,34.083064,-93.990931,AR0310400,Mineral Springs
AR,Nashville Police Department,33.947216,-93.84702,AR0310100,Nashville
AR,Austin Police Department,34.755114,-91.894132,AR0430500,Austin
AR,Ward Police Department,34.755114,-91.894132,AR0430600,Ward
AR,England Police Department,34.755114,-91.894132,AR0430100,England
AR,Cabot Police Department,34.755114,-91.894132,AR0430200,Cabot
AR,Carlisle Police Department,34.755114,-91.894132,AR0430300,Carlisle
AR,Lonoke Police Department,34.783905,-91.901344,AR0430400,Lonoke
AR,Bull Shoals Police Department,36.266656,-92.678588,AR0450200,Bull Shoals
AR,Flippin Police Department,36.266656,-92.678588,AR0450300,Flippin
AR,Texarkana Police Department,33.421623,-94.04305,AR0460100,Texarkana
AR,Clarendon Police Department,34.679513,-91.203314,AR0480200,Clarendon
AR,Brinkley Police Department,34.888054,-91.1939,AR0480100,Brinkley
AR,Prescott Police Department,33.801895,-93.381935,AR0500100,Prescott
AR,Shannon Hills Police Department,34.648525,-92.674463,AR0630400,Shannon Hills
AR,Benton Police Department,34.56359,-92.585594,AR0630100,Benton
AR,Bryant Police Department,34.61423,-92.49969,AR0630200,Bryant
AR,De Queen Police Department,34.038074,-94.33912,AR0670100,De Queen
AR,Warren Police Department,33.615875,-92.06316,AR0060100,Warren
AR,Hampton Police Department,33.56046,-92.513879,AR0070100,Hampton
AR,Berryville Police Department,36.36506,-93.56514,AR0080100,Berryville
AR,Eureka Springs Police Department,36.337774,-93.541663,AR0080200,Eureka Springs
AR,Green Forest Police Department,36.337774,-93.541663,AR0080300,Green Forest
AR,Hot Springs Police Department,34.578861,-93.146915,AR0260100,Hot Springs
AR,Diaz Police Department,35.596605,-91.223178,AR0340300,Diaz
AR,Tuckerman Police Department,35.596605,-91.223178,AR0340200,Tuckerman
AR,Newport Police Department,35.596605,-91.223178,AR0340100,Newport
AR,Swifton Police Department,35.596605,-91.223178,AR0340600,Swifton
AR,Clarksville Police Department,35.47226,-93.4646,AR0360100,Clarksville
AR,Lamar Police Department,35.573359,-93.466322,AR0360300,Lamar
AR,Star City Police Department,33.957665,-91.727624,AR0400200,Star City
AR,Huntsville Police Department,36.012545,-93.724053,AR0440100,Huntsville
AR,Des Arc Police Department,34.828225,-91.557199,AR0590200,Des Arc
AR,De Valls Bluff Police Department,34.828225,-91.557199,AR0590300,De Valls Bluff
AR,Hazen Police Department,34.828225,-91.557199,AR0590100,Hazen
AR,Jacksonville Police Department,34.867607,-92.12715,AR0600100,Jacksonville
AR,Little Rock Police Department,34.749084,-92.277565,AR0600200,Little Rock
AR,North Little Rock Police Department,34.77923,-92.26978,AR0600300,North Little Rock
AR,Sherwood Police Department,34.832664,-92.209816,AR0600400,Sherwood
AR,Cammack Village Police Department,34.776836,-92.34476,AR0600800,Cammack Village
AR,Maumelle Police Department,34.773988,-92.316515,AR0601600,Maumelle
AR,Stuttgart Police Department,34.498188,-91.55266,AR0010200,Stuttgart
AR,De Witt Police Department,34.29578,-91.33483,AR0010100,De Witt
AR,Gillett Police Department,34.289573,-91.376547,AR0010300,Gillett
AR,St. Charles Police Department,34.289573,-91.376547,AR0010500,St. Charles
AR,Heber Springs Police Department,35.566288,-92.059974,AR0120100,Heber Springs
AR,Greers Ferry Police Department,35.566288,-92.059974,AR0120300,Greers Ferry
AR,Magnolia Police Department,33.223038,-93.232843,AR0140100,Magnolia
AR,Mulberry Police Department,35.583041,-94.236224,AR0170300,Mulberry
AR,Van Buren Police Department,35.438732,-94.348175,AR0170100,Van Buren
AR,Alma Police Department,35.583041,-94.236224,AR0170200,Alma
AR,Dyer Police Department,35.583041,-94.236224,AR0170500,Dyer
AR,Conway Police Department,35.08855,-92.43863,AR0230100,Conway
AR,Greenbrier Police Department,35.146356,-92.324654,AR0230200,Greenbrier
AR,Mayflower Police Department,35.146356,-92.324654,AR0230300,Mayflower
AR,Vilonia Police Department,35.146356,-92.324654,AR0230400,Vilonia
AR,Guy Police Department,35.146356,-92.324654,AR0230500,Guy
AR,Altus Police Department,35.508573,-93.887672,AR0240300,Altus
AR,Ozark Police Department,35.508573,-93.887672,AR0240100,Ozark
AR,Charleston Police Department,35.508573,-93.887672,AR0240200,Charleston
AR,Ravenden Police Department,36.244396,-91.27053,AR0380400,Ravenden
AR,Hoxie Police Department,36.041098,-91.101153,AR0380200,Hoxie
AR,Black Rock Police Department,36.041098,-91.101153,AR0380500,Black Rock
AR,Walnut Ridge Police Department,36.068058,-90.95553,AR0380100,Walnut Ridge
AR,Camden Police Department,33.577393,-92.834,AR0520100,Camden
AR,Helena-West Helena Police Department,34.54406,-90.649284,AR0540100,Helena-West Helena
AR,Marked Tree Police Department,35.531933,-90.422485,AR0560100,Marked Tree
AR,Harrisburg Police Department,35.561455,-90.717445,AR0560300,Harrisburg
AR,Trumann Police Department,35.568981,-90.680595,AR0560200,Trumann
AR,Lepanto Police Department,35.568981,-90.680595,AR0560400,Lepanto
AR,Tyronza Police Department,35.492546,-90.3585,AR0560500,Tyronza
AR,Weiner Police Department,35.619717,-90.899994,AR0560700,Weiner
AR,Pocahontas Police Department,36.262936,-90.96942,AR0610100,Pocahontas
AR,Augusta Police Department,35.189071,-91.244418,AR0740100,Augusta
AR,McCrory Police Department,35.189071,-91.244418,AR0740200,McCrory
AR,Caraway Police Department,35.828268,-90.630411,AR0160200,Caraway
AR,Lake City Police Department,35.828268,-90.630411,AR0160300,Lake City
AR,Bay Police Department,35.828268,-90.630411,AR0160400,Bay
AR,Monette Police Department,35.828268,-90.630411,AR0160600,Monette
AR,Bono Police Department,35.828268,-90.630411,AR0160700,Bono
AR,Brookland Police Department,35.828268,-90.630411,AR0161500,Brookland
AR,Jonesboro Police Department,35.838394,-90.70817,AR0160100,Jonesboro
AR,Hope Police Department,33.728611,-93.665809,AR0290100,Hope
AR,Pine Bluff Police Department,34.221638,-92.00195,AR0350100,Pine Bluff
AR,Redfield Police Department,34.277695,-91.930701,AR0350300,Redfield
AR,White Hall Police Department,34.273453,-92.09051,AR0350200,White Hall
AR,Stamps Police Department,33.36069,-93.49839,AR0370200,Stamps
AR,Lewisville Police Department,33.24066,-93.611643,AR0370300,Lewisville
AR,Fort Smith Police Department,35.38317,-94.4234,AR0660100,Fort Smith
AR,Greenwood Police Department,35.196981,-94.274989,AR0660200,Greenwood
AR,Barling Police Department,35.3253,-94.29946,AR0660300,Barling
AR,Lavaca Police Department,35.196981,-94.274989,AR0661200,Lavaca
AR,Clinton Police Department,35.582959,-92.515977,AR0710200,Clinton
AR,Marion Police Department,35.211878,-90.315331,AR0180400,Marion
AR,Earle Police Department,35.211878,-90.315331,AR0180200,Earle
AR,West Memphis Police Department,35.146515,-90.17703,AR0180100,West Memphis
AR,Malvern Police Department,34.356274,-92.80937,AR0300100,Malvern
AR,Forrest City Police Department,35.010025,-90.78682,AR0620100,Forrest City
AR,Madison  Police Department,35.014438,-90.742138,AR0620600,Madison
AR,Hughes Police Department,35.014438,-90.742138,AR0620200,Hughes
AR,Fayetteville Police Department,36.06085,-94.15727,AR0720100,Fayetteville
AR,Prairie Grove Police Department,35.971209,-94.218417,AR0720300,Prairie Grove
AR,Farmington Police Department,35.971209,-94.218417,AR0720500,Farmington
AR,Lincoln Police Department,35.971209,-94.218417,AR0720600,Lincoln
AR,Greenland Police Department,35.971209,-94.218417,AR0720700,Greenland
AR,West Fork Police Department,35.971209,-94.218417,AR0720800,West Fork
AR,Johnson Police Department,35.971209,-94.218417,AR0720900,Johnson
AR,Elkins Police Department,36.0264,-94.0277,AR0721000,Elkins
AR,Blytheville Police Department,35.928474,-89.904274,AR0470100,Blytheville
AR,Osceola Police Department,35.766943,-90.052209,AR0470200,Osceola
AR,Leachville Police Department,35.766943,-90.052209,AR0470300,Leachville
AR,Luxora Police Department,35.766943,-90.052209,AR0470500,Luxora
AR,Gosnell Police Department,35.957237,-89.965126,AR0470700,Gosnell
AR,Etowah Police Department,35.766943,-90.052209,AR0471000,Etowah
AR,Batesville Police Department,35.771168,-91.65075,AR0320100,Batesville
AR,Ashdown Police Department,33.699497,-94.229774,AR0410100,Ashdown
AR,Ash Flat Police Department,36.173399,-91.471069,AR0680300,Ash Flat
AR,Cherokee Village Police Department,36.173399,-91.471069,AR0680400,Cherokee Village
AR,Hardy Police Department,36.173399,-91.471069,AR0680200,Hardy
AR,Alexander Police Department,34.773988,-92.316515,AR0600700,Alexander
AR,Glenwood Police Department,34.327526,-93.55145,AR0550200,Glenwood
AR,Mansfield Police Department,35.196981,-94.274989,AR0660700,Mansfield
AR,Springdale Police Department,36.18645,-94.12982,AR0720200,Springdale
AR,Quitman Police Department,35.566288,-92.059974,AR0120200,Quitman
AR,Fairfield Bay Police Department,35.582959,-92.515977,AR0710100,Fairfield Bay
AR,Damascus Police Department,35.582959,-92.515977,AR0710300,Damascus
AZ,Globe Police Department,33.395485,-110.788,AZ0040100,Globe
AZ,Hayden Police Department,33.789618,-110.81187,AZ0040300,Hayden
AZ,Miami Police Department,33.398,-110.873184,AZ0040500,Miami
AZ,Payson Police Department,34.242653,-111.322914,AZ0040600,Payson
AZ,Marana Police Department,32.447636,-111.20846,AZ0100900,Marana
AZ,South Tucson Police Department,32.2026,-110.96844,AZ0100100,South Tucson
AZ,Tucson Police Department,32.21807,-110.9706,AZ0100300,Tucson
AZ,Sahuarita Police Department,32.128238,-111.783018,AZ0100400,Sahuarita
AZ,Oro Valley Police Department,32.406918,-110.99574,AZ0100700,Oro Valley
AZ,Wellton Police Department,32.773942,-113.910905,AZ0140900,Wellton
AZ,San Luis Police Department,32.773942,-113.910905,AZ0140800,San Luis
AZ,Yuma Police Department,32.700336,-114.62042,AZ0140500,Yuma
AZ,Somerton Police Department,32.773942,-113.910905,AZ0140300,Somerton
AZ,Florence Police Department,32.919038,-111.367005,AZ0110700,Florence
AZ,Casa Grande Police Department,32.878384,-111.751495,AZ0110100,Casa Grande
AZ,Coolidge Police Department,32.977688,-111.51674,AZ0110300,Coolidge
AZ,Eloy Police Department,32.755123,-111.55495,AZ0110500,Eloy
AZ,Maricopa Police Department,32.919038,-111.367005,AZ0111700,Maricopa
AZ,Superior Police Department,33.289993,-111.10822,AZ0111200,Superior
AZ,Mammoth Police Department,32.919038,-111.367005,AZ0111100,Mammoth
AZ,Kearny Police Department,32.919038,-111.367005,AZ0110900,Kearny
AZ,Springerville Police Department,34.118523,-109.29155,AZ0010500,Springerville
AZ,St. Johns Police Department,35.385084,-109.490172,AZ0010300,St. Johns
AZ,Safford Police Department,32.834446,-109.71882,AZ0050300,Safford
AZ,Pima Police Department,32.931828,-109.87831,AZ0050100,Pima
AZ,Thatcher Police Department,32.931828,-109.87831,AZ0050500,Thatcher
AZ,Parker Police Department,33.727625,-114.038793,AZ0150100,Parker
AZ,Quartzsite Police Department,33.727625,-114.038793,AZ0150300,Quartzsite
AZ,Lake Havasu City Police Department,34.47879,-114.31841,AZ0080400,Lake Havasu City
AZ,Colorado City Police Department,35.717705,-113.749689,AZ0080600,Colorado City
AZ,Bullhead City Police Department,35.717705,-113.749689,AZ0080500,Bullhead City
AZ,Kingman Police Department,35.190815,-114.053375,AZ0080100,Kingman
AZ,Snowflake-Taylor Police Department,34.500626,-110.07909,AZ0090500,Snowflake-Taylor
AZ,Holbrook Police Department,35.390934,-110.320908,AZ0090100,Holbrook
AZ,Show Low Police Department,35.390934,-110.320908,AZ0090300,Show Low
AZ,Winslow Police Department,35.026752,-110.70396,AZ0090900,Winslow
AZ,Pinetop-Lakeside Police Department,34.15297,-109.97676,AZ0091300,Pinetop-Lakeside
AZ,Bisbee Police Department,31.840129,-109.775163,AZ0020300,Bisbee
AZ,Douglas Police Department,31.840129,-109.775163,AZ0020500,Douglas
AZ,Huachuca City Police Department,31.631521,-110.33541,AZ0020700,Huachuca City
AZ,Sierra Vista Police Department,31.56594,-110.27322,AZ0020900,Sierra Vista
AZ,Tombstone Police Department,31.840129,-109.775163,AZ0021100,Tombstone
AZ,Willcox Police Department,32.26314,-109.82966,AZ0021300,Willcox
AZ,Benson Police Department,31.840129,-109.775163,AZ0020100,Benson
AZ,Clarkdale Police Department,34.630044,-112.573745,AZ0130100,Clarkdale
AZ,Chino Valley Police Department,34.630044,-112.573745,AZ0131200,Chino Valley
AZ,Prescott Valley Police Department,34.59638,-112.33222,AZ0131100,Prescott Valley
AZ,Prescott Police Department,34.630044,-112.573745,AZ0130700,Prescott
AZ,Jerome Police Department,34.630044,-112.573745,AZ0130500,Jerome
AZ,Cottonwood Police Department,34.735905,-112.02273,AZ0130300,Cottonwood
AZ,Camp Verde Police Department,34.630044,-112.573745,AZ0131300,Camp Verde
AZ,Flagstaff Police Department,35.188972,-111.64146,AZ0030100,Flagstaff
AZ,Fredonia Police Department,35.829692,-111.773728,AZ0030300,Fredonia
AZ,Williams Police Department,35.252357,-112.18281,AZ0030700,Williams
AZ,Page Police Department,35.829692,-111.773728,AZ0030800,Page
AZ,Clifton Police Department,33.238872,-109.242323,AZ0060100,Clifton
AZ,Buckeye Police Department,33.375275,-112.573135,AZ0070300,Buckeye
AZ,Chandler Police Department,33.300625,-111.8382,AZ0070500,Chandler
AZ,El Mirage Police Department,33.346541,-112.495534,AZ0070700,El Mirage
AZ,Gilbert Police Department,33.330627,-111.78834,AZ0071100,Gilbert
AZ,Glendale Police Department,33.536736,-112.18246,AZ0071300,Glendale
AZ,Goodyear Police Department,33.490746,-112.362495,AZ0071500,Goodyear
AZ,Mesa Police Department,33.41802,-111.83668,AZ0071700,Mesa
AZ,Paradise Valley Police Department,33.531094,-111.94291,AZ0071900,Paradise Valley
AZ,Peoria Police Department,33.346541,-112.495534,AZ0072100,Peoria
AZ,Phoenix Police Department,33.44825,-112.0817,AZ0072300,Phoenix
AZ,Scottsdale Police Department,33.5695,-111.88542,AZ0072500,Scottsdale
AZ,Tempe Police Department,33.346541,-112.495534,AZ0072900,Tempe
AZ,Tolleson Police Department,33.450283,-112.26505,AZ0073100,Tolleson
AZ,Surprise Police Department,33.346541,-112.495534,AZ0072700,Surprise
AZ,Avondale Police Department,33.346541,-112.495534,AZ0070100,Avondale
AZ,Nogales Police Department,31.346354,-110.930916,AZ0120100,Nogales
AZ,Apache Junction Police Department,33.422348,-111.543236,AZ0111300,Apache Junction
AZ,Sedona Police Department,34.865772,-111.81422,AZ0131400,Sedona
AZ,Wickenburg Police Department,33.969975,-112.731514,AZ0073300,Wickenburg
CA,Bishop Police Department,37.361378,-118.39636,CA0140100,Bishop
CA,Arvin Police Department,35.346629,-118.729506,CA0150100,Arvin
CA,Bakersfield Police Department,35.346629,-118.729506,CA0150200,Bakersfield
CA,Delano Police Department,35.346629,-118.729506,CA0150300,Delano
CA,McFarland Police Department,35.67801,-119.23241,CA0150500,McFarland
CA,Ridgecrest Police Department,35.620674,-117.6702,CA0150600,Ridgecrest
CA,Shafter Police Department,35.499836,-119.27048,CA0150700,Shafter
CA,Taft Police Department,35.134575,-119.442215,CA0150800,Taft
CA,Tehachapi Police Department,35.13094,-118.447235,CA0150900,Tehachapi
CA,California City Police Department,35.127663,-117.9599,CA0151100,California City
CA,Stallion Springs Police Department,35.082546,-118.63749,CA0151400,Stallion Springs
CA,Bear Valley Police Department,35.134567,-118.574615,CA0151500,Bear Valley
CA,Lakeport Police Department,39.047752,-122.91607,CA0170100,Lakeport
CA,Clearlake Police Department,39.094802,-122.746757,CA0170200,Clearlake
CA,Mammoth Lakes Police Department,37.915836,-118.875167,CA0260100,Mammoth Lakes
CA,Calistoga Police Department,38.57867,-122.57926,CA0280100,Calistoga
CA,Napa Police Department,38.5071,-122.325905,CA0280200,Napa
CA,St. Helena Police Department,38.50604,-122.47157,CA0280300,St. Helena
CA,Winters Police Department,38.521507,-121.97047,CA0570200,Winters
CA,Davis Police Department,38.679595,-121.902444,CA0570100,Davis
CA,Woodland Police Department,38.679595,-121.902444,CA0570300,Woodland
CA,West Sacramento Police Department,38.679595,-121.902444,CA0570400,West Sacramento
CA,Wheatland Police Department,39.270026,-121.34428,CA0580200,Wheatland
CA,Marysville Police Department,39.270026,-121.34428,CA0580100,Marysville
CA,Chico Police Department,39.735462,-121.81528,CA0040200,Chico
CA,Gridley Police Department,39.365505,-121.69721,CA0040300,Gridley
CA,Oroville Police Department,39.508167,-121.554825,CA0040400,Oroville
CA,Paradise Police Department,39.75336,-121.62395,CA0040500,Paradise
CA,Orland Police Department,39.602546,-122.4017,CA0110100,Orland
CA,Corcoran Police Department,36.099304,-119.55968,CA0160100,Corcoran
CA,Hanford Police Department,36.329308,-119.64769,CA0160200,Hanford
CA,Lemoore Police Department,36.307163,-119.78825,CA0160300,Lemoore
CA,Belvedere Police Department,37.874096,-122.46572,CA0210100,Belvedere
CA,Fairfax Police Department,37.98493,-122.59092,CA0210300,Fairfax
CA,Mill Valley Police Department,37.90565,-122.57148,CA0210500,Mill Valley
CA,Novato Police Department,38.106064,-122.56927,CA0210600,Novato
CA,Ross Police Department,38.051817,-122.745974,CA0210700,Ross
CA,San Rafael Police Department,38.051817,-122.745974,CA0210900,San Rafael
CA,Sausalito Police Department,37.858112,-122.484436,CA0211000,Sausalito
CA,Tiburon Police Department,37.880222,-122.46468,CA0211100,Tiburon
CA,Alturas Police Department,41.483387,-120.54352,CA0250100,Alturas
CA,Ione Police Department,38.44355,-120.653856,CA0030200,Ione
CA,Jackson Police Department,38.347904,-120.77274,CA0030300,Jackson
CA,Sutter Creek Police Department,38.391117,-120.80235,CA0030500,Sutter Creek
CA,Colusa Police Department,39.21383,-122.009544,CA0060100,Colusa
CA,Williams Police Department,39.177739,-122.237563,CA0060200,Williams
CA,Clovis Police Department,36.82397,-119.692795,CA0100100,Clovis
CA,Coalinga Police Department,36.139175,-120.362045,CA0100200,Coalinga
CA,Firebaugh Police Department,36.761006,-119.655019,CA0100300,Firebaugh
CA,Fowler Police Department,36.630894,-119.67752,CA0100400,Fowler
CA,Fresno Police Department,36.761006,-119.655019,CA0100500,Fresno
CA,Huron Police Department,36.761006,-119.655019,CA0100600,Huron
CA,Kerman Police Department,36.722088,-120.06027,CA0100700,Kerman
CA,Kingsburg Police Department,36.761006,-119.655019,CA0100800,Kingsburg
CA,Mendota Police Department,36.759174,-120.373276,CA0100900,Mendota
CA,Orange Cove Police Department,36.761006,-119.655019,CA0101000,Orange Cove
CA,Parlier Police Department,36.761006,-119.655019,CA0101100,Parlier
CA,Reedley Police Department,36.598927,-119.453575,CA0101200,Reedley
CA,Sanger Police Department,36.70591,-119.56111,CA0101300,Sanger
CA,Selma Police Department,36.567337,-119.611984,CA0101500,Selma
CA,Susanville Police Department,40.415127,-120.64738,CA0180100,Susanville
CA,Chowchilla Police Department,37.122593,-120.25846,CA0200100,Chowchilla
CA,Madera Police Department,37.210039,-119.749852,CA0200200,Madera
CA,Atwater Police Department,37.36044,-120.600685,CA0240100,Atwater
CA,Dos Palos Police Department,36.98548,-120.62781,CA0240200,Dos Palos
CA,Gustine Police Department,37.194806,-120.722802,CA0240300,Gustine
CA,Livingston Police Department,37.385117,-120.72305,CA0240400,Livingston
CA,Los Banos Police Department,37.061142,-120.849655,CA0240500,Los Banos
CA,Merced Police Department,37.307243,-120.48267,CA0240600,Merced
CA,Grass Valley Police Department,39.218174,-121.06191,CA0290100,Grass Valley
CA,Nevada City Police Department,39.262844,-121.01968,CA0290200,Nevada City
CA,Truckee Police Department,39.295191,-120.773446,CA0290800,Truckee
CA,Anaheim Police Department,33.675687,-117.777207,CA0300100,Anaheim
CA,Brea Police Department,33.917824,-117.889275,CA0300200,Brea
CA,Buena Park Police Department,33.86387,-117.99804,CA0300300,Buena Park
CA,Costa Mesa Police Department,33.675687,-117.777207,CA0300400,Costa Mesa
CA,Cypress Police Department,33.675687,-117.777207,CA0300500,Cypress
CA,La Palma Police Department,33.849407,-118.03725,CA0300600,La Palma
CA,Fountain Valley Police Department,33.70901,-117.95065,CA0300700,Fountain Valley
CA,Fullerton Police Department,33.870346,-117.92736,CA0300800,Fullerton
CA,Garden Grove Police Department,33.675687,-117.777207,CA0300900,Garden Grove
CA,Huntington Beach Police Department,33.675687,-117.777207,CA0301000,Huntington Beach
CA,Laguna Beach Police Department,33.545933,-117.78176,CA0301100,Laguna Beach
CA,La Habra Police Department,33.93234,-117.946106,CA0301200,La Habra
CA,Los Alamitos Police Department,33.803204,-118.07573,CA0301300,Los Alamitos
CA,Newport Beach Police Department,33.675687,-117.777207,CA0301400,Newport Beach
CA,Orange Police Department,33.808765,-117.8617,CA0301500,Orange
CA,Placentia Police Department,33.871143,-117.86279,CA0301600,Placentia
CA,San Clemente Police Department,33.675687,-117.777207,CA0301700,San Clemente
CA,San Juan Capistrano Police Department,33.675687,-117.777207,CA0301800,San Juan Capistrano
CA,Santa Ana Police Department,33.675687,-117.777207,CA0301900,Santa Ana
CA,Seal Beach Police Department,33.675687,-117.777207,CA0302000,Seal Beach
CA,Stanton Police Department,33.675687,-117.777207,CA0302100,Stanton
CA,Tustin Police Department,33.743816,-117.81884,CA0302200,Tustin
CA,Villa Park Police Department,33.675687,-117.777207,CA0302300,Villa Park
CA,Westminster Police Department,33.75929,-117.986336,CA0302400,Westminster
CA,Yorba Linda Police Department,33.917824,-117.889275,CA0302500,Yorba Linda
CA,Irvine Police Department,33.675687,-117.777207,CA0302600,Irvine
CA,Lincoln Police Department,38.894478,-121.2937,CA0310300,Lincoln
CA,Auburn Police Department,38.89784,-121.074745,CA0310100,Auburn
CA,Rocklin Police Department,38.790062,-121.23455,CA0310400,Rocklin
CA,Roseville Police Department,38.760094,-121.2959,CA0310500,Roseville
CA,Anderson Police Department,40.453262,-122.298325,CA0450100,Anderson
CA,Redding Police Department,40.585827,-122.39283,CA0450200,Redding
CA,Benicia Police Department,38.05287,-122.153496,CA0480100,Benicia
CA,Dixon Police Department,38.44554,-121.82381,CA0480200,Dixon
CA,Fairfield Police Department,38.251545,-122.04343,CA0480300,Fairfield
CA,Rio Vista Police Department,38.15519,-121.689926,CA0480400,Rio Vista
CA,Suisun City Police Department,38.239162,-122.036934,CA0480500,Suisun City
CA,Vacaville Police Department,38.35016,-121.99458,CA0480600,Vacaville
CA,Vallejo Police Department,38.267226,-121.939594,CA0480700,Vallejo
CA,Cloverdale Police Department,38.806206,-123.01682,CA0490100,Cloverdale
CA,Cotati Police Department,38.323624,-122.70799,CA0490200,Cotati
CA,Healdsburg Police Department,38.609367,-122.86905,CA0490300,Healdsburg
CA,Rohnert Park Police Department,38.525026,-122.937605,CA0490400,Rohnert Park
CA,Santa Rosa Police Department,38.525026,-122.937605,CA0490500,Santa Rosa
CA,Sebastopol Police Department,38.525026,-122.937605,CA0490600,Sebastopol
CA,Sonoma Police Department,38.29818,-122.45794,CA0490700,Sonoma
CA,Petaluma Police Department,38.245697,-122.64498,CA0490800,Petaluma
CA,Yuba City Police Department,39.144726,-121.641426,CA0510200,Yuba City
CA,Red Bluff Police Department,40.175694,-122.23484,CA0520200,Red Bluff
CA,Corning Police Department,39.928185,-122.179276,CA0520100,Corning
CA,Woodlake Police Department,36.418293,-119.09891,CA0540800,Woodlake
CA,Visalia Police Department,36.32839,-119.29881,CA0540700,Visalia
CA,Tulare Police Department,36.207127,-119.34315,CA0540600,Tulare
CA,Porterville Police Department,36.072,-119.01828,CA0540500,Porterville
CA,Lindsay Police Department,36.228824,-118.781061,CA0540400,Lindsay
CA,Farmersville Police Department,36.29776,-119.19875,CA0540300,Farmersville
CA,Exeter Police Department,36.297142,-119.138405,CA0540200,Exeter
CA,Dinuba Police Department,36.55121,-119.39516,CA0540100,Dinuba
CA,Dublin Police Department,37.799427,-122.262505,CA001300X,Dublin
CA,San Leandro Police Department,37.648134,-121.913291,CA0011200,San Leandro
CA,Union City Police Department,37.58882,-122.02747,CA0011300,Union City
CA,Pleasanton Police Department,37.648134,-121.913291,CA0011100,Pleasanton
CA,Piedmont Police Department,37.824814,-122.23214,CA0011000,Piedmont
CA,Oakland Police Department,37.79965,-122.27459,CA0010900,Oakland
CA,Newark Police Department,37.536236,-122.02951,CA0010800,Newark
CA,Livermore Police Department,37.674633,-121.756935,CA0010700,Livermore
CA,Hayward Police Department,37.662106,-122.08672,CA0010600,Hayward
CA,Fremont Police Department,37.553017,-121.97069,CA0010500,Fremont
CA,Emeryville Police Department,37.648134,-121.913291,CA0010400,Emeryville
CA,Berkeley Police Department,37.870537,-122.27298,CA0010300,Berkeley
CA,Albany Police Department,37.887703,-122.29825,CA0010200,Albany
CA,Alameda Police Department,37.766888,-122.24273,CA0010100,Alameda
CA,Ventura Police Department,34.26,-119.2226,CA0560800,Ventura
CA,Simi Valley Police Department,34.286324,-118.72261,CA0560900,Simi Valley
CA,Camarillo Police Department,34.26795,-119.212875,CA0560100,Camarillo
CA,Fillmore Police Department,34.26795,-119.212875,CA0560200,Fillmore
CA,Ojai Police Department,34.26795,-119.212875,CA0560300,Ojai
CA,Oxnard Police Department,34.200966,-119.181076,CA0560400,Oxnard
CA,Port Hueneme Police Department,34.14973,-119.19544,CA0560500,Port Hueneme
CA,Santa Paula Police Department,34.35691,-119.06136,CA0560600,Santa Paula
CA,Thousand Oaks Police Department,34.26795,-119.212875,CA0560700,Thousand Oaks
CA,Arcata Police Department,40.867355,-124.085144,CA0120100,Arcata
CA,Eureka Police Department,40.80052,-124.16893,CA0120300,Eureka
CA,Ferndale Police Department,40.706673,-123.925818,CA0120400,Ferndale
CA,Fortuna Police Department,40.597363,-124.155525,CA0120500,Fortuna
CA,Rio Dell Police Department,40.497326,-124.105644,CA0120700,Rio Dell
CA,Brawley Police Department,32.978657,-115.53716,CA0130100,Brawley
CA,Calexico Police Department,32.669827,-115.49314,CA0130200,Calexico
CA,Calipatria Police Department,33.040816,-115.355395,CA0130300,Calipatria
CA,El Centro Police Department,32.793327,-115.56443,CA0130400,El Centro
CA,Holtville Police Department,32.81098,-115.379875,CA0130500,Holtville
CA,Imperial Police Department,32.844448,-115.569954,CA0130600,Imperial
CA,Westmorland Police Department,33.040816,-115.355395,CA0130700,Westmorland
CA,Del Rey Oaks Police Department,36.592197,-121.833786,CA0270200,Del Rey Oaks
CA,Gonzales Police Department,36.240107,-121.315573,CA0270300,Gonzales
CA,Greenfield Police Department,36.32111,-121.2436,CA0270400,Greenfield
CA,King City Police Department,36.211166,-121.12721,CA0270500,King City
CA,Monterey Police Department,36.596924,-121.89759,CA0270600,Monterey
CA,Pacific Grove Police Department,36.618847,-121.91879,CA0270700,Pacific Grove
CA,Salinas Police Department,36.674767,-121.65718,CA0270800,Salinas
CA,Sand City Police Department,36.61363,-121.84962,CA0270900,Sand City
CA,Seaside Police Department,36.604176,-121.85408,CA0271000,Seaside
CA,Soledad Police Department,36.240107,-121.315573,CA0271100,Soledad
CA,Marina Police Department,36.68176,-121.80256,CA0271200,Marina
CA,Carmel Police Department,36.240107,-121.315573,CA0270100,Carmel
CA,Yreka Police Department,41.732212,-122.638565,CA0470900,Yreka
CA,Lake Shastina Police Department,41.587986,-122.533287,CA0471000,Lake Shastina
CA,Weed Police Department,41.587986,-122.533287,CA0470800,Weed
CA,Tulelake Police Department,41.587986,-122.533287,CA0470700,Tulelake
CA,Mount Shasta Police Department,41.313313,-122.31235,CA0470600,Mount Shasta
CA,Montague Police Department,41.587986,-122.533287,CA0470500,Montague
CA,Fort Jones Police Department,41.72972,-122.63826,CA0470400,Fort Jones
CA,Etna Police Department,41.587986,-122.533287,CA0470300,Etna
CA,Dunsmuir Police Department,41.587986,-122.533287,CA0470200,Dunsmuir
CA,Dorris Police Department,41.72972,-122.63826,CA0470100,Dorris
CA,Sonora Police Department,37.98655,-120.38485,CA0550100,Sonora
CA,City of Angels Police Department,38.184618,-120.5594,CA0050100,City of Angels
CA,Crescent City Police Department,41.754265,-124.20122,CA0080100,Crescent City
CA,Placerville Police Department,38.73032,-120.79018,CA0090100,Placerville
CA,South Lake Tahoe Police Department,38.933025,-119.97075,CA0090200,South Lake Tahoe
CA,Fort Bragg Police Department,39.432667,-123.80412,CA0230100,Fort Bragg
CA,Ukiah Police Department,39.432388,-123.442881,CA0230300,Ukiah
CA,Willits Police Department,39.41243,-123.35326,CA0230400,Willits
CA,Wildomar Police Department,33.66725,-117.331665,CA033770X,Wildomar
CA,Eastvale Police Department,34.01191,-117.448814,CA033790X,Eastvale
CA,Jurupa Valley Police Department,34.01191,-117.448814,CA033A000,Jurupa Valley
CA,Palm Springs Police Department,33.729828,-116.002239,CA0331100,Palm Springs
CA,Norco Police Department,33.978046,-117.37402,CA0331000,Norco
CA,Indio Police Department,33.70857,-116.21641,CA0330900,Indio
CA,Hemet Police Department,33.74941,-116.96785,CA0330800,Hemet
CA,Desert Hot Springs Police Department,33.729828,-116.002239,CA0330600,Desert Hot Springs
CA,Coachella Police Department,33.978046,-117.37402,CA0330500,Coachella
CA,Blythe Police Department,33.612965,-114.59825,CA0330300,Blythe
CA,Beaumont Police Department,33.92942,-116.97506,CA0330200,Beaumont
CA,Banning Police Department,33.729828,-116.002239,CA0330100,Banning
CA,Perris Police Department,33.787678,-117.226135,CA0331200,Perris
CA,Cathedral City Police Department,33.729828,-116.002239,CA0332500,Cathedral City
CA,Lake Elsinore Police Department,33.978046,-117.37402,CA033300X,Lake Elsinore
CA,La Quinta Police Department,33.978046,-117.37402,CA033310X,La Quinta
CA,Temecula Police Department,33.978046,-117.37402,CA033380X,Temecula
CA,Calimesa Police Department,33.978046,-117.37402,CA033400X,Calimesa
CA,Canyon Lake Police Department,33.671688,-117.26131,CA033410X,Canyon Lake
CA,Murrieta Police Department,33.559948,-117.209175,CA0334200,Murrieta
CA,Riverside Police Department,33.978416,-117.37522,CA0331300,Riverside
CA,San Jacinto Police Department,33.782,-116.95954,CA0331400,San Jacinto
CA,Corona Police Department,33.729828,-116.002239,CA0331500,Corona
CA,Indian Wells Police Department,33.978046,-117.37402,CA0331600,Indian Wells
CA,Rancho Mirage Police Department,33.978046,-117.37402,CA0331700,Rancho Mirage
CA,Palm Desert Police Department,33.978046,-117.37402,CA0331800,Palm Desert
CA,Lemon Grove Police Department,32.740322,-117.03116,CA037A100,Lemon Grove
CA,San Marcos Police Department,33.14137,-117.14562,CA0371200,San Marcos
CA,Vista Police Department,33.192047,-117.25364,CA0371300,Vista
CA,San Diego Police Department,32.71573,-117.151886,CA0371100,San Diego
CA,Santee Police Department,33.023604,-116.776117,CA037A200,Santee
CA,Poway Police Department,32.955612,-117.04518,CA037A300,Poway
CA,Encinitas Police Department,33.04468,-117.25954,CA037A400,Encinitas
CA,Solana Beach Police Department,33.04468,-117.25954,CA037A500,Solana Beach
CA,Oceanside Police Department,33.023604,-116.776117,CA0371000,Oceanside
CA,National City Police Department,32.67233,-117.10557,CA0370900,National City
CA,La Mesa Police Department,32.767647,-117.02352,CA0370800,La Mesa
CA,Imperial Beach Police Department,32.57655,-117.11539,CA0370700,Imperial Beach
CA,Escondido Police Department,33.13591,-117.09332,CA0370600,Escondido
CA,El Cajon Police Department,32.807697,-116.96212,CA0370500,El Cajon
CA,Del Mar Police Department,33.04468,-117.25954,CA0370400,Del Mar
CA,Coronado Police Department,32.690113,-117.177414,CA0370300,Coronado
CA,Chula Vista Police Department,33.023604,-116.776117,CA0370200,Chula Vista
CA,Carlsbad Police Department,33.137352,-117.265976,CA0370100,Carlsbad
CA,San Bruno Police Department,37.639008,-122.41736,CA0411400,San Bruno
CA,Atherton Police Department,37.46327,-122.19748,CA0410100,Atherton
CA,Belmont Police Department,37.516838,-122.279594,CA0410200,Belmont
CA,Brisbane Police Department,37.687454,-122.40451,CA0410300,Brisbane
CA,Burlingame Police Department,37.595444,-122.38218,CA0410400,Burlingame
CA,Colma Police Department,37.67692,-122.458595,CA0410500,Colma
CA,Daly City Police Department,37.691093,-122.472984,CA0410600,Daly City
CA,Hillsborough Police Department,37.57814,-122.35546,CA0410800,Hillsborough
CA,Menlo Park Police Department,37.45417,-122.17698,CA0410900,Menlo Park
CA,Pacifica Police Department,37.414663,-122.371545,CA0411100,Pacifica
CA,Redwood City Police Department,37.49354,-122.21956,CA0411300,Redwood City
CA,San Mateo Police Department,37.551094,-122.30515,CA0411600,San Mateo
CA,South San Francisco Police Department,37.6558,-122.43701,CA0411700,South San Francisco
CA,Broadmoor Police Department,37.414663,-122.371545,CA0411900,Broadmoor
CA,Foster City Police Department,37.55951,-122.27061,CA0412000,Foster City
CA,East Palo Alto Police Department,37.472054,-122.139496,CA0412700,East Palo Alto
CA,Rancho Cordova Police Department,38.584633,-121.4959,CA034550X,Rancho Cordova
CA,Citrus Heights Police Department,38.679226,-121.298195,CA0349600,Citrus Heights
CA,Isleton Police Department,38.450011,-121.340441,CA0340300,Isleton
CA,Galt Police Department,38.26226,-121.30619,CA0340200,Galt
CA,Folsom Police Department,38.681313,-121.1638,CA0340100,Folsom
CA,Sacramento Police Department,38.520615,-121.49856,CA0340400,Sacramento
CA,Elk Grove Police Department,38.450011,-121.340441,CA0340H00,Elk Grove
CA,Hollister Police Department,36.89229,-121.39484,CA0350100,Hollister
CA,Capitola Police Department,36.974045,-121.95333,CA0440100,Capitola
CA,Watsonville Police Department,37.012488,-122.007205,CA0440300,Watsonville
CA,Santa Cruz Police Department,36.96701,-122.026955,CA0440200,Santa Cruz
CA,Scotts Valley Police Department,37.049614,-122.017624,CA0440400,Scotts Valley
CA,Newman Police Department,37.562384,-121.002656,CA0500300,Newman
CA,Patterson Police Department,37.470737,-121.13036,CA0500500,Patterson
CA,Riverbank Police Department,37.7363,-120.93573,CA0500600,Riverbank
CA,Turlock Police Department,37.562384,-121.002656,CA0500700,Turlock
CA,Waterford Police Department,37.562384,-121.002656,CA0500800,Waterford
CA,Hughson Police Department,37.562384,-121.002656,CA0500900,Hughson
CA,Ceres Police Department,37.592953,-120.95455,CA0500100,Ceres
CA,Modesto Police Department,37.636703,-120.99575,CA0500200,Modesto
CA,Oakdale Police Department,37.76764,-120.84985,CA0500400,Oakdale
CA,Alhambra Police Department,34.092934,-118.12671,CA0190100,Alhambra
CA,Arcadia Police Department,34.138,-118.03953,CA0190200,Arcadia
CA,Artesia Police Department,34.06067,-118.167885,CA0190300,Artesia
CA,Avalon Police Department,34.06067,-118.167885,CA0190400,Avalon
CA,Azusa Police Department,34.13403,-117.90616,CA0190500,Azusa
CA,Baldwin Park Police Department,34.085308,-117.96031,CA0190600,Baldwin Park
CA,Bell Police Department,33.979942,-118.18879,CA0190700,Bell
CA,Bellflower Police Department,34.06067,-118.167885,CA0190800,Bellflower
CA,Bell Gardens Police Department,33.967304,-118.15043,CA0190900,Bell Gardens
CA,La Habra Heights Police Department,34.06067,-118.167885,CA0190D0X,La Habra Heights
CA,Westlake Village Police Department,34.06067,-118.167885,CA0190X0X,Westlake Village
CA,Beverly Hills Police Department,34.073654,-118.40051,CA0191000,Beverly Hills
CA,Bradbury Police Department,34.06067,-118.167885,CA0191100,Bradbury
CA,Burbank Police Department,34.196398,-118.261862,CA0191200,Burbank
CA,Claremont Police Department,34.0965,-117.72234,CA0191300,Claremont
CA,Commerce Police Department,34.06067,-118.167885,CA0191400,Commerce
CA,Compton Police Department,34.196398,-118.261862,CA0191500,Compton
CA,Covina Police Department,34.08973,-117.890114,CA0191600,Covina
CA,Cudahy Police Department,33.98755,-118.189354,CA0191700,Cudahy
CA,Culver City Police Department,34.0207,-118.39563,CA0191800,Culver City
CA,Cerritos Police Department,34.06067,-118.167885,CA0191900,Cerritos
CA,Agoura Hills Police Department,34.06067,-118.167885,CA0191F00,Agoura Hills
CA,West Hollywood Police Department,34.083508,-118.38372,CA0191H0X,West Hollywood
CA,Santa Clarita Police Department,34.06067,-118.167885,CA0191R0X,Santa Clarita
CA,Diamond Bar Police Department,34.06067,-118.167885,CA0191W0X,Diamond Bar
CA,Downey Police Department,34.196398,-118.261862,CA0192000,Downey
CA,Duarte Police Department,34.06067,-118.167885,CA0192100,Duarte
CA,El Monte Police Department,34.196398,-118.261862,CA0192200,El Monte
CA,El Segundo Police Department,33.919888,-118.41592,CA0192300,El Segundo
CA,Gardena Police Department,34.196398,-118.261862,CA0192400,Gardena
CA,Glendale Police Department,34.14695,-118.24886,CA0192500,Glendale
CA,Glendora Police Department,34.135105,-117.86546,CA0192600,Glendora
CA,Hawaiian Gardens Police Department,34.196398,-118.261862,CA0192700,Hawaiian Gardens
CA,Hawthorne Police Department,33.919025,-118.35244,CA0192800,Hawthorne
CA,Hermosa Beach Police Department,34.196398,-118.261862,CA0192900,Hermosa Beach
CA,Calabasas Police Department,34.06067,-118.167885,CA0192H0X,Calabasas
CA,Malibu Police Department,34.06067,-118.167885,CA0192J0X,Malibu
CA,Hidden Hills Police Department,34.06067,-118.167885,CA0193000,Hidden Hills
CA,Huntington Park Police Department,33.979866,-118.219055,CA0193100,Huntington Park
CA,Industry Police Department,34.06067,-118.167885,CA0193200,Industry
CA,Inglewood Police Department,34.196398,-118.261862,CA0193300,Inglewood
CA,Irwindale Police Department,34.10423,-117.934135,CA0193400,Irwindale
CA,Lakewood Police Department,34.06067,-118.167885,CA0193500,Lakewood
CA,La Mirada Police Department,34.196398,-118.261862,CA0193600,La Mirada
CA,La Puente Police Department,34.06067,-118.167885,CA0193700,La Puente
CA,La Verne Police Department,34.196398,-118.261862,CA0193800,La Verne
CA,Lawndale Police Department,34.06067,-118.167885,CA0193900,Lawndale
CA,Lomita Police Department,34.06067,-118.167885,CA0194000,Lomita
CA,Long Beach Police Department,34.196398,-118.261862,CA0194100,Long Beach
CA,Los Angeles Police Department,34.196398,-118.261862,CA0194200,Los Angeles
CA,Lynwood Police Department,34.06067,-118.167885,CA0194300,Lynwood
CA,Manhattan Beach Police Department,33.887936,-118.41001,CA0194400,Manhattan Beach
CA,Maywood Police Department,33.987534,-118.18923,CA0194500,Maywood
CA,Monrovia Police Department,34.148067,-118.00008,CA0194600,Monrovia
CA,Montebello Police Department,34.019287,-118.11615,CA0194700,Montebello
CA,Monterey Park Police Department,34.05978,-118.12597,CA0194800,Monterey Park
CA,Norwalk Police Department,34.06067,-118.167885,CA0194900,Norwalk
CA,Palmdale Police Department,34.06067,-118.167885,CA0195000,Palmdale
CA,Palos Verdes Estates Police Department,34.196398,-118.261862,CA0195100,Palos Verdes Estates
CA,Paramount Police Department,34.06067,-118.167885,CA0195200,Paramount
CA,Pasadena Police Department,34.149437,-118.1443,CA0195300,Pasadena
CA,Pico Rivera Police Department,34.06067,-118.167885,CA0195400,Pico Rivera
CA,Pomona Police Department,34.05499,-117.75431,CA0195500,Pomona
CA,Redondo Beach Police Department,33.844234,-118.38821,CA0195600,Redondo Beach
CA,Rolling Hills Police Department,34.06067,-118.167885,CA0195700,Rolling Hills
CA,Rolling Hills Estates Police Department,34.06067,-118.167885,CA0195800,Rolling Hills Estates
CA,Rosemead Police Department,34.06067,-118.167885,CA0195900,Rosemead
CA,San Dimas Police Department,34.06067,-118.167885,CA0196000,San Dimas
CA,San Fernando Police Department,34.283566,-118.43928,CA0196100,San Fernando
CA,San Gabriel Police Department,34.196398,-118.261862,CA0196200,San Gabriel
CA,San Marino Police Department,34.121788,-118.106316,CA0196300,San Marino
CA,Santa Fe Springs Police Department,33.974472,-118.03265,CA0196400,Santa Fe Springs
CA,Santa Monica Police Department,34.01294,-118.49036,CA0196500,Santa Monica
CA,Sierra Madre Police Department,34.161842,-118.05774,CA0196600,Sierra Madre
CA,Signal Hill Police Department,33.7971,-118.16873,CA0196700,Signal Hill
CA,South El Monte Police Department,34.06067,-118.167885,CA0196800,South El Monte
CA,South Gate Police Department,33.95646,-118.20569,CA0196900,South Gate
CA,South Pasadena Police Department,34.11581,-118.1524,CA0197000,South Pasadena
CA,Temple City Police Department,34.06067,-118.167885,CA0197100,Temple City
CA,Torrance Police Department,33.84033,-118.34455,CA0197200,Torrance
CA,Vernon Police Department,34.196398,-118.261862,CA0197300,Vernon
CA,Walnut Police Department,34.06067,-118.167885,CA0197400,Walnut
CA,West Covina Police Department,34.072132,-117.93709,CA0197500,West Covina
CA,Whittier Police Department,33.974472,-118.03265,CA0197600,Whittier
CA,Carson Police Department,34.06067,-118.167885,CA0197700,Carson
CA,Rancho Palos Verdes Police Department,34.06067,-118.167885,CA0198000,Rancho Palos Verdes
CA,La Canada Flintridge Police Department,34.06067,-118.167885,CA019900X,La Canada Flintridge
CA,Lancaster Police Department,34.06067,-118.167885,CA019960X,Lancaster
CA,Manteca Police Department,37.79916,-121.231125,CA0390300,Manteca
CA,Ripon Police Department,37.740936,-121.135475,CA0390400,Ripon
CA,Stockton Police Department,37.935034,-121.272237,CA0390500,Stockton
CA,Tracy Police Department,37.935034,-121.272237,CA0390600,Tracy
CA,Escalon Police Department,37.935034,-121.272237,CA0390100,Escalon
CA,Lodi Police Department,38.135468,-121.27515,CA0390200,Lodi
CA,Los Gatos Police Department,37.220777,-121.690622,CA0430700,Los Gatos
CA,Los Altos Police Department,37.382168,-122.11404,CA0430500,Los Altos
CA,Gilroy Police Department,37.003857,-121.57284,CA0430400,Gilroy
CA,Cupertino Police Department,37.3542,-121.90724,CA0430300,Cupertino
CA,Campbell Police Department,37.288048,-121.94482,CA0430200,Campbell
CA,Santa Clara Police Department,37.220777,-121.690622,CA0431400,Santa Clara
CA,Saratoga Police Department,37.3542,-121.90724,CA0431500,Saratoga
CA,Sunnyvale Police Department,37.220777,-121.690622,CA0431600,Sunnyvale
CA,Morgan Hill Police Department,37.220777,-121.690622,CA0431000,Morgan Hill
CA,Mountain View Police Department,37.394695,-122.08119,CA0431100,Mountain View
CA,Palo Alto Police Department,37.44405,-122.15936,CA0431200,Palo Alto
CA,Monte Sereno Police Department,37.221287,-121.97938,CA0430900,Monte Sereno
CA,San Jose Police Department,37.220777,-121.690622,CA0431300,San Jose
CA,Milpitas Police Department,37.452545,-121.91041,CA0430800,Milpitas
CA,Los Altos Hills Police Department,37.3542,-121.90724,CA0430600,Los Altos Hills
CA,Brentwood Police Department,37.919037,-121.68469,CA0070200,Brentwood
CA,Clayton Police Department,37.94229,-121.93776,CA0070300,Clayton
CA,Concord Police Department,37.919479,-121.951543,CA0070400,Concord
CA,El Cerrito Police Department,37.916363,-122.31207,CA0070500,El Cerrito
CA,Hercules Police Department,38.00937,-122.26571,CA0070600,Hercules
CA,Pinole Police Department,38.00441,-122.290115,CA0070700,Pinole
CA,Pittsburg Police Department,37.919479,-121.951543,CA0070800,Pittsburg
CA,Pleasant Hill Police Department,37.96205,-122.070656,CA0070900,Pleasant Hill
CA,Richmond Police Department,37.919479,-121.951543,CA0071000,Richmond
CA,San Pablo Police Department,37.919479,-121.951543,CA0071100,San Pablo
CA,Walnut Creek Police Department,37.919479,-121.951543,CA0071200,Walnut Creek
CA,Kensington Police Department,37.919479,-121.951543,CA0071300,Kensington
CA,Martinez Police Department,38.01375,-122.13533,CA0071400,Martinez
CA,Lafayette Police Department,38.01906,-122.13399,CA0071500,Lafayette
CA,Moraga Police Department,37.919479,-121.951543,CA0071600,Moraga
CA,Danville Police Department,38.01906,-122.13399,CA007230X,Danville
CA,Antioch Police Department,37.919479,-121.951543,CA0070100,Antioch
CA,San Francisco Police Department,37.775047,-122.40381,CA0380100,San Francisco
CA,Santa Barbara Police Department,34.537248,-120.037915,CA0420300,Santa Barbara
CA,Santa Maria Police Department,34.94979,-120.43389,CA0420400,Santa Maria
CA,Carpinteria Police Department,34.537248,-120.037915,CA0420500,Carpinteria
CA,Solvang Police Department,34.537248,-120.037915,CA0421000,Solvang
CA,Buellton Police Department,34.537248,-120.037915,CA0421200,Buellton
CA,Goleta Police Department,34.44241,-119.77944,CA042140X,Goleta
CA,Lompoc Police Department,34.537248,-120.037915,CA0420200,Lompoc
CA,Guadalupe Police Department,34.9701,-120.56895,CA0420100,Guadalupe
CA,Chino Police Department,34.012817,-117.68927,CA0360200,Chino
CA,Barstow Police Department,34.892834,-117.02627,CA0360100,Barstow
CA,Colton Police Department,34.071785,-117.323296,CA0360300,Colton
CA,Fontana Police Department,34.102913,-117.432785,CA0360400,Fontana
CA,Montclair Police Department,34.85722,-116.181197,CA0360500,Montclair
CA,Needles Police Department,34.85722,-116.181197,CA0360600,Needles
CA,Ontario Police Department,34.027554,-117.593216,CA0360700,Ontario
CA,Redlands Police Department,34.85722,-116.181197,CA0360800,Redlands
CA,Rialto Police Department,34.103333,-117.37477,CA0360900,Rialto
CA,San Bernardino Police Department,34.85722,-116.181197,CA0361000,San Bernardino
CA,Upland Police Department,34.110546,-117.67902,CA0361100,Upland
CA,Victorville Police Department,34.85722,-116.181197,CA0361200,Victorville
CA,Adelanto Police Department,34.85722,-116.181197,CA0361300,Adelanto
CA,Rancho Cucamonga Police Department,34.10287,-117.575584,CA0361600,Rancho Cucamonga
CA,Highland Police Department,34.12124,-117.210754,CA036300X,Highland
CA,San Luis Obispo Police Department,35.285446,-120.663635,CA0400600,San Luis Obispo
CA,Pismo Beach Police Department,35.14444,-120.64104,CA0400500,Pismo Beach
CA,Paso Robles Police Department,35.62364,-120.68984,CA0400400,Paso Robles
CA,Morro Bay Police Department,35.365948,-120.842705,CA0400300,Morro Bay
CA,Grover Beach Police Department,35.120537,-120.6226,CA0400200,Grover Beach
CA,Arroyo Grande Police Department,35.120285,-120.59154,CA0400100,Arroyo Grande
CA,Atascadero Police Department,35.49247,-120.67593,CA0400800,Atascadero
CO,Springfield Police Department,37.406647,-102.61652,CO0050100,Springfield
CO,Walsh Police Department,37.306678,-102.537765,CO0050700,Walsh
CO,Leadville Police Department,39.25045,-106.29249,CO0330100,Leadville
CO,De Beque Police Department,39.019492,-108.461837,CO0390400,De Beque
CO,Collbran Police Department,39.019492,-108.461837,CO0390900,Collbran
CO,Fruita Police Department,39.157085,-108.733734,CO0390200,Fruita
CO,Palisade Police Department,39.019492,-108.461837,CO0390300,Palisade
CO,Grand Junction Police Department,39.019492,-108.461837,CO0390100,Grand Junction
CO,Fairplay Police Department,39.118914,-105.717648,CO0470100,Fairplay
CO,Mead Police Department,40.555794,-104.383649,CO0622600,Mead
CO,Fort Lupton Police Department,40.080627,-104.8129,CO0620100,Fort Lupton
CO,Greeley Police Department,40.422905,-104.72735,CO0620200,Greeley
CO,Eaton Police Department,40.526012,-104.71326,CO0620300,Eaton
CO,Evans Police Department,40.377373,-104.69789,CO0620400,Evans
CO,La Salle Police Department,40.350674,-104.703735,CO0620500,La Salle
CO,Dacono Police Department,40.555794,-104.383649,CO0620800,Dacono
CO,Kersey Police Department,40.555794,-104.383649,CO0620900,Kersey
CO,Milliken Police Department,40.555794,-104.383649,CO0621100,Milliken
CO,Ault Police Department,40.555794,-104.383649,CO0621200,Ault
CO,Platteville Police Department,40.217316,-104.82332,CO0621300,Platteville
CO,Frederick Police Department,40.555794,-104.383649,CO0621700,Frederick
CO,Firestone Police Department,40.555794,-104.383649,CO0621800,Firestone
CO,Keenesburg Police Department,40.555794,-104.383649,CO0621900,Keenesburg
CO,Lochbuie Police Department,40.010933,-104.71616,CO0622000,Lochbuie
CO,Hudson Police Department,40.555794,-104.383649,CO0622400,Hudson
CO,Garden City Police Department,40.39324,-104.68806,CO0622700,Garden City
CO,Severance Police Department,40.555794,-104.383649,CO0622800,Severance
CO,Yuma Police Department,40.000631,-102.422649,CO0630200,Yuma
CO,Wray Police Department,40.000631,-102.422649,CO0630100,Wray
CO,Thornton Police Department,39.868996,-104.984215,CO0010400,Thornton
CO,Commerce City Police Department,39.874325,-104.331872,CO0010300,Commerce City
CO,Federal Heights Police Department,39.859097,-105.01396,CO0010800,Federal Heights
CO,Hotchkiss Police Department,38.861756,-107.864757,CO0150300,Hotchkiss
CO,Cedaredge Police Department,38.861756,-107.864757,CO0150400,Cedaredge
CO,Paonia Police Department,38.861756,-107.864757,CO0150200,Paonia
CO,Delta Police Department,38.74036,-108.072365,CO0150100,Delta
CO,Vail Police Department,39.627712,-106.42001,CO0190100,Vail
CO,Eagle Police Department,39.630638,-106.692944,CO0190200,Eagle
CO,Avon Police Department,39.630638,-106.692944,CO0190600,Avon
CO,Kremmling Police Department,40.123289,-106.095876,CO0250300,Kremmling
CO,Fraser/Winter Park Police Department,40.123289,-106.095876,CO0250400,Fraser/Winter Park
CO,Granby Police Department,40.123289,-106.095876,CO0250100,Granby
CO,Sterling Police Department,40.728091,-103.090464,CO0380100,Sterling
CO,Fowler Police Department,38.130898,-104.02448,CO0450400,Fowler
CO,Manzanola Police Department,37.88417,-103.72126,CO0450300,Manzanola
CO,Rocky Ford Police Department,38.052746,-103.72137,CO0450200,Rocky Ford
CO,La Junta Police Department,37.88417,-103.72126,CO0450100,La Junta
CO,Ouray Police Department,38.1506,-107.767133,CO0460100,Ouray
CO,Ridgway Police Department,38.1506,-107.767133,CO0460200,Ridgway
CO,Hayden Police Department,40.483155,-106.985274,CO0540200,Hayden
CO,Oak Creek Police Department,40.483155,-106.985274,CO0540300,Oak Creek
CO,Steamboat Springs Police Department,40.483155,-106.985274,CO0540100,Steamboat Springs
CO,Denver Police Department,39.737377,-104.99167,CODPD0000,Denver
CO,Simla Police Department,39.310582,-104.117729,CO0200200,Simla
CO,Elizabeth Police Department,39.310582,-104.117729,CO0200100,Elizabeth
CO,Black Hawk Police Department,39.861082,-105.528947,CO0240200,Black Hawk
CO,Craig Police Department,40.506866,-107.558464,CO0410100,Craig
CO,Dinosaur Police Department,40.573984,-108.204521,CO0410200,Dinosaur
CO,Log Lane Village Police Department,40.270668,-103.83202,CO0440400,Log Lane Village
CO,Brush Police Department,40.26254,-103.807497,CO0440100,Brush
CO,Fort Morgan Police Department,40.25126,-103.78875,CO0440200,Fort Morgan
CO,Wiggins Police Department,40.26254,-103.807497,CO0440300,Wiggins
CO,Aspen Police Department,39.19041,-106.81792,CO0490100,Aspen
CO,Snowmass Village Police Department,39.217533,-106.915943,CO0490200,Snowmass Village
CO,Pueblo Police Department,38.268818,-104.6085,CO0510100,Pueblo
CO,Dillon Police Department,39.621023,-106.137555,CO0590200,Dillon
CO,Breckenridge Police Department,39.621023,-106.137555,CO0590100,Breckenridge
CO,Blue River Police Department,39.621023,-106.137555,CO0590500,Blue River
CO,Silverthorne Police Department,39.621023,-106.137555,CO0590300,Silverthorne
CO,Frisco Police Department,39.621023,-106.137555,CO0590400,Frisco
CO,Cripple Creek Police Department,38.871994,-105.182552,CO0600200,Cripple Creek
CO,Woodland Park Police Department,38.871994,-105.182552,CO0600100,Woodland Park
CO,Alamosa Police Department,37.568442,-105.788041,CO0020100,Alamosa
CO,Nederland Police Department,40.094838,-105.398376,CO0070800,Nederland
CO,Boulder Police Department,40.018864,-105.24995,CO0070100,Boulder
CO,Lafayette Police Department,39.987686,-105.09051,CO0070300,Lafayette
CO,Louisville Police Department,39.977306,-105.13216,CO0070600,Louisville
CO,Salida Police Department,38.738244,-106.316955,CO0080200,Salida
CO,Buena Vista Police Department,38.738244,-106.316955,CO0080100,Buena Vista
CO,Sanford Police Department,37.213406,-106.176447,CO0110500,Sanford
CO,Lone Tree Police Department,39.326435,-104.926199,CO0180700,Lone Tree
CO,Castle Rock Police Department,39.37022,-104.85867,CO0180100,Castle Rock
CO,Parker Police Department,39.326435,-104.926199,CO0180500,Parker
CO,Monument Police Department,38.827383,-104.527472,CO0210700,Monument
CO,Calhan Police Department,38.827383,-104.527472,CO0211000,Calhan
CO,Manitou Springs Police Department,38.857506,-104.91301,CO0210300,Manitou Springs
CO,Palmer Lake Police Department,38.827383,-104.527472,CO0210600,Palmer Lake
CO,Colorado Springs Police Department,38.82436,-104.822075,CO0210100,Colorado Springs
CO,Fountain Police Department,38.695778,-104.70522,CO0210200,Fountain
CO,Florence Police Department,38.394386,-105.12429,CO0220200,Florence
CO,Canon City Police Department,38.455658,-105.421438,CO0220100,Canon City
CO,Estes Park Police Department,40.663091,-105.482131,CO0350200,Estes Park
CO,Loveland Police Department,40.402042,-105.08795,CO0350400,Loveland
CO,Fort Collins Police Department,40.58892,-105.08077,CO0350300,Fort Collins
CO,Hugo Police Department,38.99374,-103.507555,CO0370200,Hugo
CO,Limon Police Department,38.99374,-103.507555,CO0370100,Limon
CO,Granada Police Department,38.062717,-102.31013,CO0500400,Granada
CO,Lamar Police Department,38.084953,-102.618866,CO0500100,Lamar
CO,Centennial Police Department,39.644632,-104.331733,CO0031100,Centennial
CO,Englewood Police Department,39.644632,-104.331733,CO0030100,Englewood
CO,Sheridan Police Department,39.642136,-105.02534,CO0030300,Sheridan
CO,Glendale Police Department,39.6993,-104.936356,CO0030400,Glendale
CO,Cherry Hills Village Police Department,39.638012,-104.95837,CO0030500,Cherry Hills Village
CO,Greenwood Village Police Department,39.644632,-104.331733,CO0030700,Greenwood Village
CO,Columbine Valley Police Department,39.606247,-105.035,CO0030800,Columbine Valley
CO,Carbondale Police Department,39.40172,-107.21212,CO0230400,Carbondale
CO,Silt Police Department,39.599352,-107.90978,CO0230500,Silt
CO,New Castle Police Department,39.599352,-107.90978,CO0230600,New Castle
CO,Glenwood Springs Police Department,39.54674,-107.32649,CO0230100,Glenwood Springs
CO,Parachute Police Department,39.599352,-107.90978,CO0230200,Parachute
CO,Rifle Police Department,39.545822,-107.782364,CO0230300,Rifle
CO,Gunnison Police Department,38.669679,-107.078108,CO0260100,Gunnison
CO,Mount Crested Butte Police Department,38.669679,-107.078108,CO0260200,Mount Crested Butte
CO,Crested Butte Police Department,38.669679,-107.078108,CO0260300,Crested Butte
CO,La Veta Police Department,37.687815,-104.959928,CO0280200,La Veta
CO,Ignacio Police Department,37.287367,-107.839718,CO0340300,Ignacio
CO,Durango Police Department,37.274067,-107.87903,CO0340100,Durango
CO,Bayfield Police Department,37.287367,-107.839718,CO0340400,Bayfield
CO,Montrose Police Department,38.413427,-108.263042,CO0430100,Montrose
CO,Olathe Police Department,38.413427,-108.263042,CO0430400,Olathe
CO,Haxtun Police Department,40.594712,-102.345105,CO0480200,Haxtun
CO,Holyoke Police Department,40.585617,-102.29797,CO0480100,Holyoke
CO,Pagosa Springs Police Department,37.202395,-107.050863,CO0040100,Pagosa Springs
CO,Lakewood Police Department,39.708225,-105.08569,CO0300400,Lakewood
CO,Wheat Ridge Police Department,39.758446,-105.07984,CO0300500,Wheat Ridge
CO,Lakeside Police Department,39.776623,-105.061516,CO0300600,Lakeside
CO,Morrison Police Department,39.65041,-105.1937,CO0300700,Morrison
CO,Mountain View Police Department,39.773666,-105.05553,CO0300900,Mountain View
CO,Golden Police Department,39.75706,-105.22413,CO0300200,Golden
CO,Edgewater Police Department,39.753033,-105.06145,CO0300300,Edgewater
CO,Cortez Police Department,37.35523,-108.574974,CO0420100,Cortez
CO,Mancos Police Department,37.345413,-108.28907,CO0420200,Mancos
CO,Broomfield Police Department,39.921543,-105.07059,CO0640100,Broomfield
CO,Burlington Police Department,39.30534,-102.603023,CO0320100,Burlington
CO,Trinidad Police Department,37.318831,-104.04411,CO0360100,Trinidad
CO,Rangely Police Department,40.087517,-108.80293,CO0520200,Rangely
CO,Meeker Police Department,40.036907,-107.90987,CO0520100,Meeker
CO,Monte Vista Police Department,37.485763,-106.453214,CO0530100,Monte Vista
CO,Del Norte Police Department,37.485763,-106.453214,CO0530200,Del Norte
CO,South Fork Police Department,37.485763,-106.453214,CO0530300,South Fork
CO,Telluride Police Department,38.009374,-108.427326,CO0570100,Telluride
CO,Mountain Village Police Department,37.933586,-107.85683,CO0570300,Mountain Village
CO,Brighton Police Department,39.874325,-104.331872,CO0010200,Brighton
CO,Northglenn Police Department,39.9079,-104.98737,CO0010600,Northglenn
CO,Empire Police Department,39.689403,-105.670791,CO0100300,Empire
CO,Georgetown Police Department,39.689403,-105.670791,CO0100200,Georgetown
CO,Idaho Springs Police Department,39.689403,-105.670791,CO0100100,Idaho Springs
CO,Longmont Police Department,40.162106,-105.10189,CO0070400,Longmont
CO,Erie Police Department,40.555794,-104.383649,CO0620700,Erie
CO,Basalt Police Department,39.362366,-107.02863,CO0190400,Basalt
CO,Timnath Police Department,40.663091,-105.482131,CO0351000,Timnath
CO,Johnstown Police Department,40.555794,-104.383649,CO0621000,Johnstown
CO,Windsor Police Department,40.555794,-104.383649,CO0620600,Windsor
CO,Green Mountain Falls Police Department,38.827383,-104.527472,CO0210900,Green Mountain Falls
CO,Westminster Police Department,39.86312,-105.050415,CO0010500,Westminster
CO,Arvada Police Department,39.802036,-105.08734,CO0300100,Arvada
CO,Bow Mar Police Department,39.619427,-105.04605,CO0030600,Bow Mar
CO,Center Police Department,38.031651,-106.234666,CO0550100,Center
CO,Aurora Police Department,39.70955,-104.81493,CO0010100,Aurora
CO,Littleton Police Department,39.616898,-105.01454,CO0030200,Littleton
CT,Suffield Police Department,41.98631,-72.68829,CT0013900,Suffield
CT,New Britain Police Department,41.667534,-72.77737,CT0008900,New Britain
CT,Farmington Police Department,41.748455,-72.86829,CT0005200,Farmington
CT,Glastonbury Police Department,41.806053,-72.732916,CT0005400,Glastonbury
CT,Granby Police Department,41.95605,-72.79298,CT0005600,Granby
CT,Vernon Police Department,41.839462,-72.46484,CT0014600,Vernon
CT,Hartford Police Department,41.806053,-72.732916,CT0006400,Hartford
CT,South Windsor Police Department,41.836597,-72.55273,CT0013200,South Windsor
CT,Southington Police Department,41.621525,-72.87579,CT0013100,Southington
CT,Manchester Police Department,41.783634,-72.51181,CT0007700,Manchester
CT,Simsbury Police Department,41.88075,-72.79997,CT0012800,Simsbury
CT,Bloomfield Police Department,41.806053,-72.732916,CT0001100,Bloomfield
CT,Rocky Hill Police Department,41.66597,-72.638336,CT0011900,Rocky Hill
CT,Plainville Police Department,41.673176,-72.865486,CT0011000,Plainville
CT,Newington Police Department,41.697254,-72.729836,CT0009400,Newington
CT,Avon Police Department,41.806053,-72.732916,CT0000400,Avon
CT,Canton Police Department,41.82199,-72.92377,CT0002300,Canton
CT,Berlin Police Department,41.62753,-72.770615,CT0000700,Berlin
CT,Coventry Police Department,41.780262,-72.312584,CT0003200,Coventry
CT,Windsor Locks Police Department,41.928047,-72.6476,CT0016500,Windsor Locks
CT,Windsor Police Department,41.851955,-72.66085,CT0016400,Windsor
CT,East Hartford Police Department,41.78032,-72.611305,CT0004300,East Hartford
CT,Wethersfield Police Department,41.72029,-72.667244,CT0015900,Wethersfield
CT,West Hartford Police Department,41.75906,-72.73901,CT0015500,West Hartford
CT,East Windsor Police Department,41.806053,-72.732916,CT0004700,East Windsor
CT,Enfield Police Department,41.99931,-72.59431,CT0004900,Enfield
CT,Torrington Police Department,41.812046,-73.12125,CT0014300,Torrington
CT,Winchester Police Department,41.871433,-72.96484,CT0016200,Winchester
CT,Naugatuck Police Department,41.504784,-73.054276,CT0008800,Naugatuck
CT,Bristol Police Department,41.670544,-72.94299,CT0001700,Bristol
CT,Cheshire Police Department,41.51123,-72.89918,CT0002500,Cheshire
CT,Derby Police Department,41.323452,-73.086716,CT0003700,Derby
CT,Middlebury Police Department,41.349717,-72.900204,CT0008100,Middlebury
CT,Ansonia Police Department,41.33309,-73.07276,CT0000200,Ansonia
CT,Plymouth Police Department,41.791883,-73.235404,CT0011100,Plymouth
CT,Seymour Police Department,41.397545,-73.07271,CT0012400,Seymour
CT,Shelton Police Department,41.320045,-73.11258,CT0012600,Shelton
CT,Thomaston Police Department,41.791883,-73.235404,CT0014000,Thomaston
CT,Waterbury Police Department,41.349717,-72.900204,CT0015100,Waterbury
CT,Watertown Police Department,41.598167,-73.1071,CT0015300,Watertown
CT,Wolcott Police Department,41.578514,-72.98141,CT0016600,Wolcott
CT,Easton Police Department,41.227399,-73.366523,CT0004600,Easton
CT,Fairfield Police Department,41.139725,-73.25669,CT0005100,Fairfield
CT,Trumbull Police Department,41.23494,-73.21886,CT0014400,Trumbull
CT,Bridgeport Police Department,41.227399,-73.366523,CT0001500,Bridgeport
CT,Monroe Police Department,41.33218,-73.207184,CT0008500,Monroe
CT,Stratford Police Department,41.200733,-73.12911,CT0013800,Stratford
CT,Weston Police Department,41.201523,-73.37871,CT0015700,Weston
CT,Brookfield Police Department,41.467785,-73.40296,CT0001800,Brookfield
CT,Greenwich Police Department,41.025414,-73.62489,CT0005700,Greenwich
CT,Stamford Police Department,41.060837,-73.53756,CT0013500,Stamford
CT,Norwalk Police Department,41.096684,-73.42238,CT0010300,Norwalk
CT,Ridgefield Police Department,41.28048,-73.49382,CT0011800,Ridgefield
CT,Bethel Police Department,41.227399,-73.366523,CT0000900,Bethel
CT,New Milford Police Department,41.791883,-73.235404,CT0009600,New Milford
CT,Newtown Police Department,41.409485,-73.305756,CT0009700,Newtown
CT,Redding Police Department,41.302574,-73.38424,CT0011700,Redding
CT,New Canaan Police Department,41.14095,-73.49129,CT0009000,New Canaan
CT,Wilton Police Department,41.188206,-73.425186,CT0016100,Wilton
CT,Darien Police Department,41.227399,-73.366523,CT0003500,Darien
CT,Westport Police Department,41.140804,-73.3617,CT0015800,Westport
CT,Danbury Police Department,41.40037,-73.45838,CT0003400,Danbury
CT,Plainfield Police Department,41.824999,-71.990702,CT0010900,Plainfield
CT,Putnam Police Department,41.9213,-71.91015,CT0011600,Putnam
CT,Willimantic Police Department,41.824999,-71.990702,CT0016300,Willimantic
CT,Groton Town Police Department,41.343468,-72.01095,CT00A5900,Groton Town
CT,Stonington Police Department,41.36695,-71.86386,CT0013700,Stonington
CT,Groton Long Point Police Department,41.472651,-72.108633,CT00B5900,Groton Long Point
CT,Groton Police Department,41.35508,-72.0722,CT0005900,Groton
CT,Waterford Police Department,41.34454,-72.137215,CT0015200,Waterford
CT,East Lyme Police Department,41.472651,-72.108633,CT0004500,East Lyme
CT,Norwich Police Department,41.516167,-72.08029,CT0010400,Norwich
CT,New London Police Department,41.3566,-72.09597,CT0009500,New London
CT,Branford Police Department,41.280483,-72.81397,CT0001400,Branford
CT,North Haven Police Department,41.387096,-72.8615,CT0010100,North Haven
CT,Hamden Police Department,41.349717,-72.900204,CT0006200,Hamden
CT,Guilford Police Department,41.293587,-72.68643,CT0006000,Guilford
CT,North Branford Police Department,41.349717,-72.900204,CT0009900,North Branford
CT,Wallingford Police Department,41.456078,-72.81701,CT0014800,Wallingford
CT,Madison Police Department,41.294643,-72.57503,CT0007600,Madison
CT,Milford Police Department,41.349717,-72.900204,CT0008400,Milford
CT,West Haven Police Department,41.27384,-72.96431,CT0015600,West Haven
CT,Woodbridge Police Department,41.35437,-73.01193,CT0016700,Woodbridge
CT,East Haven Police Department,41.29254,-72.86689,CT0004400,East Haven
CT,Orange Police Department,41.349717,-72.900204,CT0010700,Orange
CT,New Haven Police Department,41.28382,-72.868744,CT0009300,New Haven
CT,Meriden Police Department,41.5185,-72.82707,CT0008000,Meriden
CT,Cromwell Police Department,41.595985,-72.6463,CT0003300,Cromwell
CT,Old Saybrook Police Department,41.434525,-72.524227,CT0010600,Old Saybrook
CT,Middletown Police Department,41.557114,-72.64751,CT0008300,Middletown
CT,East Hampton Police Department,41.58303,-72.504326,CT0004200,East Hampton
CT,Clinton Police Department,41.278084,-72.523766,CT0002700,Clinton
CT,Portland Police Department,41.57564,-72.63865,CT0011300,Portland
DC,Washington Police Department,38.894764,-77.015205,DCMPD0000,Washington
DE,Camden Police Department,39.11345,-75.54225,DE0010400,Camden
DE,Clayton Police Department,39.097088,-75.502982,DE0010600,Clayton
DE,Dover Police Department,39.097088,-75.502982,DE0010100,Dover
DE,Felton Police Department,39.01094,-75.57476,DE0010700,Felton
DE,Frederica Police Department,39.097088,-75.502982,DE0010800,Frederica
DE,Kenton Police Department,39.097088,-75.502982,DE0010900,Kenton
DE,Cheswold Police Department,39.097088,-75.502982,DE0012600,Cheswold
DE,Harrington Police Department,38.924095,-75.57957,DE0010200,Harrington
DE,Wyoming Police Department,39.118744,-75.55912,DE0013100,Wyoming
DE,Laurel Police Department,38.677511,-75.335495,DE0030300,Laurel
DE,Delmar Police Department,38.677511,-75.335495,DE0030200,Delmar
DE,Milton Police Department,38.77769,-75.31031,DE0030600,Milton
DE,Rehoboth Beach Police Department,38.715996,-75.08348,DE0030700,Rehoboth Beach
DE,Seaford Police Department,38.65286,-75.61424,DE0030800,Seaford
DE,Blades Police Department,38.633743,-75.6098,DE0030900,Blades
DE,Bethany Beach Police Department,38.677511,-75.335495,DE0031000,Bethany Beach
DE,Dagsboro Police Department,38.677511,-75.335495,DE0031100,Dagsboro
DE,Fenwick Island Police Department,38.677511,-75.335495,DE0031200,Fenwick Island
DE,Georgetown Police Department,38.694782,-75.3895,DE0031300,Georgetown
DE,Greenwood Police Department,38.677511,-75.335495,DE0031400,Greenwood
DE,Millsboro Police Department,38.677511,-75.335495,DE0031500,Millsboro
DE,Selbyville Police Department,38.677511,-75.335495,DE0031600,Selbyville
DE,Ocean View Police Department,38.677511,-75.335495,DE0031700,Ocean View
DE,South Bethany Police Department,38.677511,-75.335495,DE0031800,South Bethany
DE,Frankford Police Department,38.677511,-75.335495,DE0031900,Frankford
DE,Dewey Beach Police Department,38.709568,-75.078224,DE0032400,Dewey Beach
DE,Ellendale Police Department,38.677511,-75.335495,DE0033000,Ellendale
DE,Bridgeville Police Department,38.744175,-75.599144,DE0030100,Bridgeville
DE,Lewes Police Department,38.677511,-75.335495,DE0030400,Lewes
DE,Newark Police Department,39.575915,-75.644132,DE0020500,Newark
DE,Middletown Police Department,39.44838,-75.71802,DE0020200,Middletown
DE,New Castle Police Department,39.575915,-75.644132,DE0020400,New Castle
DE,Wilmington Police Department,39.73873,-75.548965,DE0020600,Wilmington
DE,Elsmere Police Department,39.739624,-75.60179,DE0020700,Elsmere
DE,Newport Police Department,39.575915,-75.644132,DE0020800,Newport
DE,Delaware City Police Department,39.57391,-75.59376,DE0020900,Delaware City
DE,Milford Police Department,38.91612,-75.42161,DE0030500,Milford
DE,Smyrna Police Department,39.300205,-75.61435,DE0010300,Smyrna
FL,Panama City Police Department,30.17504,-85.64405,FL0030100,Panama City
FL,Mexico Beach Police Department,30.237563,-85.631348,FL0030400,Mexico Beach
FL,Springfield Police Department,30.237563,-85.631348,FL0030500,Springfield
FL,Panama City Beach Police Department,30.228601,-85.889694,FL0030600,Panama City Beach
FL,Lynn Haven Police Department,30.237333,-85.64769,FL0030700,Lynn Haven
FL,Parker Police Department,30.128723,-85.605316,FL0032600,Parker
FL,Sanibel Police Department,26.551527,-81.892457,FL0360300,Sanibel
FL,Cape Coral Police Department,26.551527,-81.892457,FL0360200,Cape Coral
FL,Fort Myers Police Department,26.639778,-81.868385,FL0360100,Fort Myers
FL,Green Cove Springs Police Department,29.993206,-81.67696,FL0100100,Green Cove Springs
FL,Orange Park Police Department,29.987115,-81.858147,FL0100200,Orange Park
FL,Port St. Joe Police Department,29.812017,-85.30212,FL0230100,Port St. Joe
FL,Lady Lake Police Department,28.931673,-81.929245,FL0351300,Lady Lake
FL,Eustis Police Department,28.764113,-81.712282,FL0350100,Eustis
FL,Leesburg Police Department,28.764113,-81.712282,FL0350200,Leesburg
FL,Clermont Police Department,28.764113,-81.712282,FL0350300,Clermont
FL,Fruitland Park Police Department,28.764113,-81.712282,FL0350400,Fruitland Park
FL,Groveland Police Department,28.561514,-81.8591,FL0350500,Groveland
FL,Howey-In-the-Hills Police Department,28.71339,-81.77265,FL0350600,Howey-In-the-Hills
FL,Mascotte Police Department,28.578428,-81.89611,FL0350700,Mascotte
FL,Minneola Police Department,28.801252,-81.73048,FL0350800,Minneola
FL,Mount Dora Police Department,28.807991,-81.64475,FL0351000,Mount Dora
FL,Tavares Police Department,28.764113,-81.712282,FL0351100,Tavares
FL,Umatilla Police Department,28.764113,-81.712282,FL0351200,Umatilla
FL,Astatula Police Department,28.764113,-81.712282,FL0351400,Astatula
FL,Tallahassee Police Department,30.457855,-84.27986,FL0370300,Tallahassee
FL,Cedar Key Police Department,29.284457,-82.783462,FL0380100,Cedar Key
FL,Williston Police Department,29.386124,-82.44689,FL0380400,Williston
FL,Chiefland Police Department,29.478706,-82.85951,FL0380200,Chiefland
FL,Auburndale Police Department,27.953115,-81.692783,FL0530100,Auburndale
FL,Bartow Police Department,27.901537,-81.84344,FL0530200,Bartow
FL,Davenport Police Department,27.953115,-81.692783,FL0530300,Davenport
FL,Haines City Police Department,27.953115,-81.692783,FL0530900,Haines City
FL,Lake Alfred Police Department,28.093035,-81.7282,FL0531000,Lake Alfred
FL,Lake Hamilton Police Department,27.953115,-81.692783,FL0531100,Lake Hamilton
FL,Lakeland Police Department,28.045244,-81.95414,FL0531200,Lakeland
FL,Lake Wales Police Department,27.900166,-81.58885,FL0531300,Lake Wales
FL,Winter Haven Police Department,27.953115,-81.692783,FL0531600,Winter Haven
FL,Cross City Police Department,29.580899,-83.195666,FL0150100,Cross City
FL,Neptune Beach Police Department,30.323698,-81.39605,FL0160400,Neptune Beach
FL,Jacksonville Beach Police Department,30.288599,-81.40567,FL0160300,Jacksonville Beach
FL,Atlantic Beach Police Department,30.333538,-81.4022,FL0160100,Atlantic Beach
FL,New Port Richey Police Department,28.255634,-82.718185,FL0510200,New Port Richey
FL,Zephyrhills Police Department,28.307737,-82.464718,FL0510300,Zephyrhills
FL,Port Richey Police Department,28.280624,-82.70983,FL0510400,Port Richey
FL,Dade City Police Department,28.36381,-82.187256,FL0510100,Dade City
FL,Arcadia Police Department,27.190581,-81.806253,FL0140100,Arcadia
FL,Wauchula Police Department,27.546947,-81.812836,FL0250200,Wauchula
FL,Bowling Green Police Department,27.492846,-81.82158,FL0250100,Bowling Green
FL,Clewiston Police Department,26.752415,-80.935234,FL0260100,Clewiston
FL,Bonifay Police Department,30.78491,-85.679924,FL0300100,Bonifay
FL,Dunnellon Police Department,29.045834,-82.4647,FL0420300,Dunnellon
FL,Belleview Police Department,29.062445,-82.06017,FL0420200,Belleview
FL,Ocala Police Department,29.183275,-82.14036,FL0420100,Ocala
FL,Stuart Police Department,27.079954,-80.398211,FL0430100,Stuart
FL,Jupiter Island Police Department,27.052881,-80.11079,FL0430200,Jupiter Island
